,host_name,calculated_host_listings_count_entire_homes,neighbourhood_cleansed,latitude,longitude
0,Nick,3,ΕΜΠΟΡΙΚΟ ΤΡΙΓΩΝΟ-ΠΛΑΚΑ,37.97922,23.7247
1,ΜΙΧΟΣ Μονοπροσωπη Ικε,17,ΕΜΠΟΡΙΚΟ ΤΡΙΓΩΝΟ-ΠΛΑΚΑ,37.97623,23.7308
2,Γιώργος,4,ΑΜΠΕΛΟΚΗΠΟΙ,37.9832706,23.7535501
3,Angelos,3,ΠΑΤΗΣΙΑ,38.00945032548231,23.73300506881317
4,Michail,3,ΚΥΨΕΛΗ,38.00037,23.74047
5,Bill & John,30,ΕΜΠΟΡΙΚΟ ΤΡΙΓΩΝΟ-ΠΛΑΚΑ,37.97867,23.7366
6,Sanders,14,ΜΟΥΣΕΙΟ-ΕΞΑΡΧΕΙΑ-ΝΕΑΠΟΛΗ,37.9841866,23.7373208
7,Mint,9,ΜΟΥΣΕΙΟ-ΕΞΑΡΧΕΙΑ-ΝΕΑΠΟΛΗ,37.98867699514217,23.741875598439712
8,Peter,4,ΖΑΠΠΕΙΟ,37.96699,23.73076
9,Mgv,101,ΑΚΡΟΠΟΛΗ,37.96274,23.71821
10,Κωνσταντινος,22,ΠΑΓΚΡΑΤΙ,37.9703731,23.7452287
11,Konstantinos,3,ΕΜΠΟΡΙΚΟ ΤΡΙΓΩΝΟ-ΠΛΑΚΑ,37.97298,23.73307
12,Annie,5,ΝΕΟΣ ΚΟΣΜΟΣ,37.96340802207342,23.727704398334023
13,Amelie,32,ΕΜΠΟΡΙΚΟ ΤΡΙΓΩΝΟ-ΠΛΑΚΑ,37.97838,23.72786
14,Evelyn,20,ΕΜΠΟΡΙΚΟ ΤΡΙΓΩΝΟ-ΠΛΑΚΑ,37.97982,23.72681
15,Konstantinos,10,ΕΜΠΟΡΙΚΟ ΤΡΙΓΩΝΟ-ΠΛΑΚΑ,37.9747,23.73277
16,Phaedrus Living,34,ΛΥΚΑΒΗΤΤΟΣ,37.98687066992668,23.74722037070128
17,Vaggelis,4,ΚΟΥΚΑΚΙ-ΜΑΚΡΥΓΙΑΝΝΗ,37.968035,23.7307661
18,Hostingme,4,ΣΤΑΔΙΟ,37.9660746,23.7460398
19,Maya,3,ΑΓΙΟΣ ΚΩΝΣΤΑΝΤΙΝΟΣ-ΠΛΑΤΕΙΑ ΒΑΘΗΣ,37.9883,23.72903
20,Klepsydra,14,ΕΜΠΟΡΙΚΟ ΤΡΙΓΩΝΟ-ΠΛΑΚΑ,37.98027,23.73059
21,Lucas,15,ΘΗΣΕΙΟ,37.97567255511307,23.714728702909003
22,Katerina,6,ΕΜΠΟΡΙΚΟ ΤΡΙΓΩΝΟ-ΠΛΑΚΑ,37.9767833,23.7267682
23,Raise Team,42,ΚΟΥΚΑΚΙ-ΜΑΚΡΥΓΙΑΝΝΗ,37.96727,23.72909
24,Platina,3,ΕΜΠΟΡΙΚΟ ΤΡΙΓΩΝΟ-ΠΛΑΚΑ,37.9767556,23.7290954
25,Home,23,ΜΟΥΣΕΙΟ-ΕΞΑΡΧΕΙΑ-ΝΕΑΠΟΛΗ,37.98632,23.73116
26,Ma Maison,7,ΖΑΠΠΕΙΟ,37.96733394886691,23.735490411500543
27,Monkfish Trading MON IKE,26,ΝΕΟΣ ΚΟΣΜΟΣ,37.96427,23.7275
28,George,11,ΚΟΥΚΑΚΙ-ΜΑΚΡΥΓΙΑΝΝΗ,37.96908238923113,23.7298484196434
29,Mgv,101,ΠΑΓΚΡΑΤΙ,37.97063,23.74422
30,Dimitris,18,ΕΜΠΟΡΙΚΟ ΤΡΙΓΩΝΟ-ΠΛΑΚΑ,37.97709,23.73012
31,Helena,5,ΙΛΙΣΙΑ,37.9761883,23.754782
32,Νταιανα,3,ΠΛΑΤΕΙΑ ΑΜΕΡΙΚΗΣ,38.0004314,23.7299526
33,Harry,64,ΑΜΠΕΛΟΚΗΠΟΙ,37.98505366489002,23.756187043886527
34,Spiros,4,ΝΕΟΣ ΚΟΣΜΟΣ,37.956725830480345,23.72620320018949
35,Goldally,30,ΑΓΙΟΣ ΝΙΚΟΛΑΟΣ,38.0119254,23.7290926
36,Athens Houses,19,ΠΕΤΡΑΛΩΝΑ,37.96539,23.70985
37,Athens Houses,19,ΠΕΤΡΑΛΩΝΑ,37.97269751265402,23.711574119554506
38,Homer & Isabella,58,ΠΑΓΚΡΑΤΙ,37.9670617,23.7454093
39,Ira & Oleg,37,ΑΓΙΟΣ ΚΩΝΣΤΑΝΤΙΝΟΣ-ΠΛΑΤΕΙΑ ΒΑΘΗΣ,37.98659,23.72556
40,Maryland,56,ΓΟΥΒΑ,37.95696624834064,23.74248760052789
41,Bill And Helena,19,ΕΜΠΟΡΙΚΟ ΤΡΙΓΩΝΟ-ΠΛΑΚΑ,37.9745,23.73411
42,Raise Team,42,ΕΜΠΟΡΙΚΟ ΤΡΙΓΩΝΟ-ΠΛΑΚΑ,37.97847965537965,23.728583913491807
43,Evgenii,3,ΑΓΙΟΣ ΝΙΚΟΛΑΟΣ,38.00578043289126,23.728456789639285
44,Oltian,13,ΑΓΙΟΣ ΚΩΝΣΤΑΝΤΙΝΟΣ-ΠΛΑΤΕΙΑ ΒΑΘΗΣ,37.9821,23.7208
45,Maria,13,ΓΟΥΔΙ,37.9856621,23.7632247
46,Αργυρώ,5,ΚΟΥΚΑΚΙ-ΜΑΚΡΥΓΙΑΝΝΗ,37.96701,23.72503
47,Tèo,49,ΑΚΡΟΠΟΛΗ,37.96875,23.72642
48,Ted,22,ΓΟΥΒΑ,37.96401230000001,23.7446395
49,Aris,6,ΠΛΑΤΕΙΑ ΑΤΤΙΚΗΣ,37.99436,23.72805
50,Mehmet,3,ΚΟΥΚΑΚΙ-ΜΑΚΡΥΓΙΑΝΝΗ,37.9666101,23.7268147
51,Kitty,4,ΜΟΥΣΕΙΟ-ΕΞΑΡΧΕΙΑ-ΝΕΑΠΟΛΗ,37.98921,23.74014
52,Sakis,7,ΕΜΠΟΡΙΚΟ ΤΡΙΓΩΝΟ-ΠΛΑΚΑ,37.97294,23.72888
53,Christos,5,ΑΚΑΔΗΜΙΑ ΠΛΑΤΩΝΟΣ,37.98578,23.71596
54,Sokol,42,ΑΓΙΟΣ ΚΩΝΣΤΑΝΤΙΝΟΣ-ΠΛΑΤΕΙΑ ΒΑΘΗΣ,37.98223,23.72136
55,Sarn,18,ΕΜΠΟΡΙΚΟ ΤΡΙΓΩΝΟ-ΠΛΑΚΑ,37.9776397,23.7286596
56,Georgios,3,ΚΟΥΚΑΚΙ-ΜΑΚΡΥΓΙΑΝΝΗ,37.96867,23.7309
57,Mint,9,ΜΟΥΣΕΙΟ-ΕΞΑΡΧΕΙΑ-ΝΕΑΠΟΛΗ,37.98709,23.74241
58,Tèo,49,ΠΕΔΙΟ ΑΡΕΩΣ,37.99417338952765,23.73276995085885
59,NOHO Boutique,19,ΘΗΣΕΙΟ,37.9743147,23.7166672
60,C W,11,ΝΕΟΣ ΚΟΣΜΟΣ,37.95786,23.73621
61,Monastraki,5,ΕΜΠΟΡΙΚΟ ΤΡΙΓΩΝΟ-ΠΛΑΚΑ,37.97846,23.72467
62,Maria,13,ΓΟΥΔΙ,37.9856621,23.7632247
63,Tèo,49,ΠΛΑΤΕΙΑ ΑΤΤΙΚΗΣ,37.99587,23.7319
64,David,12,ΝΕΟΣ ΚΟΣΜΟΣ,37.96656,23.7304
65,Sevi,4,ΠΑΓΚΡΑΤΙ,37.97316,23.74796
66,Antonios,8,ΕΜΠΟΡΙΚΟ ΤΡΙΓΩΝΟ-ΠΛΑΚΑ,37.9768906,23.7308544
67,Flavia,19,ΜΟΥΣΕΙΟ-ΕΞΑΡΧΕΙΑ-ΝΕΑΠΟΛΗ,37.98729,23.74312
68,Thomas,4,ΚΟΥΚΑΚΙ-ΜΑΚΡΥΓΙΑΝΝΗ,37.96491,23.72431
69,George,57,ΚΟΥΚΑΚΙ-ΜΑΚΡΥΓΙΑΝΝΗ,37.9668,23.72682
70,HAUSolutions,20,ΑΓΙΟΣ ΚΩΝΣΤΑΝΤΙΝΟΣ-ΠΛΑΤΕΙΑ ΒΑΘΗΣ,37.98307363140558,23.72072438987647
71,Anhome,4,ΝΕΟΣ ΚΟΣΜΟΣ,37.9601016,23.7296405
72,Konstantinos,5,ΕΜΠΟΡΙΚΟ ΤΡΙΓΩΝΟ-ΠΛΑΚΑ,37.9862451,23.7254684
73,Marianna,19,ΝΙΡΒΑΝΑ,38.00809,23.72753
74,Antonia,12,ΕΜΠΟΡΙΚΟ ΤΡΙΓΩΝΟ-ΠΛΑΚΑ,37.97617,23.72907
75,Hermes,10,ΚΟΥΚΑΚΙ-ΜΑΚΡΥΓΙΑΝΝΗ,37.96638,23.72858
76,Ivy Vacation Rentals,21,ΕΜΠΟΡΙΚΟ ΤΡΙΓΩΝΟ-ΠΛΑΚΑ,37.977524,23.729153
77,Golden Home Holidays,35,ΚΟΥΚΑΚΙ-ΜΑΚΡΥΓΙΑΝΝΗ,37.96618,23.72796
78,Panagiotis,5,ΑΓΙΟΣ ΚΩΝΣΤΑΝΤΙΝΟΣ-ΠΛΑΤΕΙΑ ΒΑΘΗΣ,37.98237,23.72324
79,The Newel Psychiko,5,ΕΛΛΗΝΟΡΩΣΩΝ,37.99635749999999,23.7723704
80,Dimkat,4,ΕΜΠΟΡΙΚΟ ΤΡΙΓΩΝΟ-ΠΛΑΚΑ,37.97489681466473,23.733167326983637
81,The Best Homes,6,ΕΜΠΟΡΙΚΟ ΤΡΙΓΩΝΟ-ΠΛΑΚΑ,37.970903360045774,23.731797268787734
82,Spyros,28,ΝΕΟΣ ΚΟΣΜΟΣ,37.964016,23.72887
83,Ioannis,3,ΝΙΡΒΑΝΑ,38.0078,23.72749
84,Manos,8,ΚΟΥΚΑΚΙ-ΜΑΚΡΥΓΙΑΝΝΗ,37.96399,23.72386
85,Blue,10,ΚΟΥΚΑΚΙ-ΜΑΚΡΥΓΙΑΝΝΗ,37.96772,23.72799
86,Afrodite,3,ΓΟΥΔΙ,37.98057,23.76175
87,Loukas,40,ΠΛΑΤΕΙΑ ΑΤΤΙΚΗΣ,37.9922435,23.7293023
88,Viktor,33,ΝΙΡΒΑΝΑ,38.01337,23.72853
89,Harry,64,ΜΟΥΣΕΙΟ-ΕΞΑΡΧΕΙΑ-ΝΕΑΠΟΛΗ,37.9876823425293,23.750871658325195
90,Dimi David,26,ΠΑΓΚΡΑΤΙ,37.9731,23.74805
91,Emmanouil,5,ΕΜΠΟΡΙΚΟ ΤΡΙΓΩΝΟ-ΠΛΑΚΑ,37.97665,23.73203
92,LUXandEASY,15,ΠΑΤΗΣΙΑ,38.01223,23.73183
93,Andrés,3,ΑΓΙΟΣ ΚΩΝΣΤΑΝΤΙΝΟΣ-ΠΛΑΤΕΙΑ ΒΑΘΗΣ,37.98697,23.71843
94,Antonis,14,ΕΜΠΟΡΙΚΟ ΤΡΙΓΩΝΟ-ΠΛΑΚΑ,37.9747311,23.7332764
95,Athens Panorama Project,8,ΚΥΨΕΛΗ,37.99755,23.74163
96,Georgina,6,ΕΜΠΟΡΙΚΟ ΤΡΙΓΩΝΟ-ΠΛΑΚΑ,37.97636,23.73297
97,Nina,18,ΚΥΨΕΛΗ,38.0011329,23.7420397
98,Petros,3,ΣΤΑΘΜΟΣ ΛΑΡΙΣΗΣ,37.99458574947564,23.72118292042014
99,Stelios,22,ΚΟΛΩΝΟΣ,37.9953768,23.7169128
100,Diamond,18,ΑΜΠΕΛΟΚΗΠΟΙ,37.99916,23.7661
101,Athens Boutique Residences,21,ΜΟΥΣΕΙΟ-ΕΞΑΡΧΕΙΑ-ΝΕΑΠΟΛΗ,37.9861455,23.7392199
102,Αριστειδης,33,ΠΛΑΤΕΙΑ ΑΤΤΙΚΗΣ,37.9993,23.73071
103,Dimi David,26,ΠΑΓΚΡΑΤΙ,37.97103,23.74838
104,Θεόδωρος,4,ΠΑΓΚΡΑΤΙ,37.97283,23.7481
105,Nestor,12,ΠΛΑΤΕΙΑ ΑΤΤΙΚΗΣ,37.99249,23.72629
106,Dimitris,4,ΕΜΠΟΡΙΚΟ ΤΡΙΓΩΝΟ-ΠΛΑΚΑ,37.97867,23.72601
107,Spyros,28,ΖΑΠΠΕΙΟ,37.967049,23.73131
108,Yannis & Tax,14,ΝΕΟΣ ΚΟΣΜΟΣ,37.96592,23.72952
109,Gpm,36,ΜΟΥΣΕΙΟ-ΕΞΑΡΧΕΙΑ-ΝΕΑΠΟΛΗ,37.98513,23.7387
110,Gpm,36,ΚΟΥΚΑΚΙ-ΜΑΚΡΥΓΙΑΝΝΗ,37.9631,23.7194
111,Liv,9,ΑΜΠΕΛΟΚΗΠΟΙ,37.9912169,23.7664927
112,Vamelon,3,ΑΜΠΕΛΟΚΗΠΟΙ,37.99200293161873,23.763675038926134
113,Maryland,56,ΓΚΥΖΗ,37.9900099,23.7521497
114,Wyz Attiki,6,ΠΛΑΤΕΙΑ ΑΤΤΙΚΗΣ,37.995251,23.722631
115,Gtrip,15,ΣΤΑΔΙΟ,37.96709,23.74279
116,Mamaxo,12,ΠΛΑΤΕΙΑ ΑΤΤΙΚΗΣ,37.99711,23.72171
117,Βαρσάμης,3,ΝΕΟΣ ΚΟΣΜΟΣ,37.9597313,23.7295575
118,Tourigo,14,ΝΕΟΣ ΚΟΣΜΟΣ,37.95865,23.72747
119,Amalia,3,ΚΕΡΑΜΕΙΚΟΣ,37.98163,23.71484
120,Romanos,20,ΠΡΟΜΠΟΝΑ,38.026,23.73249
121,Athens Family Apartments,6,ΠΛΑΤΕΙΑ ΑΤΤΙΚΗΣ,37.99435,23.72789
122,Spyros & Marina,3,ΠΕΤΡΑΛΩΝΑ,37.96948,23.70619
123,Petros,11,ΜΟΥΣΕΙΟ-ΕΞΑΡΧΕΙΑ-ΝΕΑΠΟΛΗ,37.9880314,23.7428736
124,Kathy,5,ΠΛΑΤΕΙΑ ΑΤΤΙΚΗΣ,37.99194840000001,23.727745099999986
125,Natasha,10,ΝΕΟΣ ΚΟΣΜΟΣ,37.96147,23.72402
126,Stelios,22,ΠΕΤΡΑΛΩΝΑ,37.96686,23.70821
127,Mgv,101,ΠΑΓΚΡΑΤΙ,37.97058769709853,23.74916789278763
128,W.S.D Home Inn,15,ΚΟΥΚΑΚΙ-ΜΑΚΡΥΓΙΑΝΝΗ,37.962008952842375,23.720396260793912
129,Stavros,5,ΝΕΟΣ ΚΟΣΜΟΣ,37.9593,23.72932
130,Nikos,14,ΑΜΠΕΛΟΚΗΠΟΙ,37.98895,23.76657
131,Goldally,30,ΠΛΑΤΕΙΑ ΑΤΤΙΚΗΣ,37.99790429999999,23.7256515
132,Co And Living,7,ΜΟΥΣΕΙΟ-ΕΞΑΡΧΕΙΑ-ΝΕΑΠΟΛΗ,37.9850273,23.7410269
133,Emmanuela,20,ΙΛΙΣΙΑ,37.97531,23.75318
134,Fire,4,ΝΕΑ ΚΥΨΕΛΗ,38.00082,23.74711
135,Loukas,40,ΠΛΑΤΕΙΑ ΑΤΤΙΚΗΣ,37.99207,23.72907
136,Angela And Akis,3,ΕΜΠΟΡΙΚΟ ΤΡΙΓΩΝΟ-ΠΛΑΚΑ,37.98312,23.73202
137,Tourigo,14,ΣΤΑΔΙΟ,37.9651802,23.7439683
138,Taleb,3,ΕΜΠΟΡΙΚΟ ΤΡΙΓΩΝΟ-ΠΛΑΚΑ,37.9771,23.73008
139,C W,11,ΕΜΠΟΡΙΚΟ ΤΡΙΓΩΝΟ-ΠΛΑΚΑ,37.98300133545407,23.731491398394915
140,Lucas,15,ΣΤΑΔΙΟ,37.9666843,23.7426116
141,Αριστειδης,33,ΑΓΙΟΣ ΝΙΚΟΛΑΟΣ,38.00485406368016,23.72830158604036
142,Maria,5,ΚΟΛΩΝΑΚΙ,37.97625,23.74273
143,Athens Boutique Residence,11,ΜΟΥΣΕΙΟ-ΕΞΑΡΧΕΙΑ-ΝΕΑΠΟΛΗ,37.98723,23.7380154
144,Gianttrip,30,ΜΟΥΣΕΙΟ-ΕΞΑΡΧΕΙΑ-ΝΕΑΠΟΛΗ,37.9845976,23.7366524
145,Leonidas,22,ΚΟΥΚΑΚΙ-ΜΑΚΡΥΓΙΑΝΝΗ,37.96604,23.72423
146,Old,8,ΕΜΠΟΡΙΚΟ ΤΡΙΓΩΝΟ-ΠΛΑΚΑ,37.97751,23.72849
147,Pan,3,ΚΟΥΚΑΚΙ-ΜΑΚΡΥΓΙΑΝΝΗ,37.96639,23.7264
148,G,15,ΝΙΡΒΑΝΑ,38.01372878225484,23.72107237103495
149,Giorgos,4,ΝΙΡΒΑΝΑ,38.00373,23.726
150,Shading Blue,3,ΕΜΠΟΡΙΚΟ ΤΡΙΓΩΝΟ-ΠΛΑΚΑ,37.97384,23.72699
151,MyGreekVacations,19,ΘΗΣΕΙΟ,37.97522,23.71378
152,Segal Group,19,ΑΝΩ ΚΥΨΕΛΗ,38.00316,23.736
153,Raise Team,42,ΝΕΟΣ ΚΟΣΜΟΣ,37.96581,23.72949
154,Sunny,9,ΝΙΡΒΑΝΑ,38.01222,23.72459
155,Evan&Anetta,68,ΘΗΣΕΙΟ,37.977501,23.722305
156,Ioannis,3,ΖΑΠΠΕΙΟ,37.9677144,23.7327074
157,Konstantinos,20,ΑΚΡΟΠΟΛΗ,37.97005,23.72569
158,Dropebnb,49,ΜΟΥΣΕΙΟ-ΕΞΑΡΧΕΙΑ-ΝΕΑΠΟΛΗ,37.9849676,23.7375067
159,Steven,3,ΕΜΠΟΡΙΚΟ ΤΡΙΓΩΝΟ-ΠΛΑΚΑ,37.973045,23.726326
160,Manolis,7,ΘΗΣΕΙΟ,37.97481,23.71539
161,AthINN,9,ΕΜΠΟΡΙΚΟ ΤΡΙΓΩΝΟ-ΠΛΑΚΑ,37.977795,23.728117
162,George,57,ΕΜΠΟΡΙΚΟ ΤΡΙΓΩΝΟ-ΠΛΑΚΑ,37.97091,23.73113
163,Ioannis,8,ΠΛΑΤΕΙΑ ΑΤΤΙΚΗΣ,38.00178,23.72536
164,Βαρσάμης,3,ΝΕΟΣ ΚΟΣΜΟΣ,37.9576015,23.7335083
165,Stella And Nikos,25,ΕΜΠΟΡΙΚΟ ΤΡΙΓΩΝΟ-ΠΛΑΚΑ,37.97355,23.7346
166,Antonia,12,ΕΜΠΟΡΙΚΟ ΤΡΙΓΩΝΟ-ΠΛΑΚΑ,37.97578,23.72867
167,WSD Home Inn,27,ΑΓΙΟΣ ΚΩΝΣΤΑΝΤΙΝΟΣ-ΠΛΑΤΕΙΑ ΒΑΘΗΣ,37.9854,23.72426
168,Elia Didotou,18,ΜΟΥΣΕΙΟ-ΕΞΑΡΧΕΙΑ-ΝΕΑΠΟΛΗ,37.98376349121741,23.73634638301253
169,Lydia,4,ΜΟΥΣΕΙΟ-ΕΞΑΡΧΕΙΑ-ΝΕΑΠΟΛΗ,37.98753886398147,23.73499579953659
170,VKbnb,11,ΕΜΠΟΡΙΚΟ ΤΡΙΓΩΝΟ-ΠΛΑΚΑ,37.9846011,23.7333197
171,Ευστρατιος,5,ΕΜΠΟΡΙΚΟ ΤΡΙΓΩΝΟ-ΠΛΑΚΑ,37.98449,23.73247
172,Sunny Home,15,ΘΗΣΕΙΟ,37.9745,23.71696
173,Toni,47,ΘΗΣΕΙΟ,37.97615,23.71609
174,Yannis & Tax,14,ΕΜΠΟΡΙΚΟ ΤΡΙΓΩΝΟ-ΠΛΑΚΑ,37.97439,23.73371
175,Ipelhome,6,ΕΜΠΟΡΙΚΟ ΤΡΙΓΩΝΟ-ΠΛΑΚΑ,37.971527099609375,23.73163414001465
176,Hestia,40,ΜΟΥΣΕΙΟ-ΕΞΑΡΧΕΙΑ-ΝΕΑΠΟΛΗ,37.99077606201172,23.736297607421875
177,Loukas,40,ΜΟΥΣΕΙΟ-ΕΞΑΡΧΕΙΑ-ΝΕΑΠΟΛΗ,37.98799,23.73046
178,Evelyn,20,ΕΜΠΟΡΙΚΟ ΤΡΙΓΩΝΟ-ΠΛΑΚΑ,37.9768634,23.7291254
179,CloudKeys,35,ΜΟΥΣΕΙΟ-ΕΞΑΡΧΕΙΑ-ΝΕΑΠΟΛΗ,37.98917,23.73824
180,Maria & Prokopis,5,ΚΕΡΑΜΕΙΚΟΣ,37.97964477539063,23.72140312194824
181,Ira & Oleg,37,ΑΓΙΟΣ ΚΩΝΣΤΑΝΤΙΝΟΣ-ΠΛΑΤΕΙΑ ΒΑΘΗΣ,37.9895,23.72384
182,Raise Team,42,ΕΜΠΟΡΙΚΟ ΤΡΙΓΩΝΟ-ΠΛΑΚΑ,37.97847965537965,23.728557091401655
183,Niki,3,ΕΜΠΟΡΙΚΟ ΤΡΙΓΩΝΟ-ΠΛΑΚΑ,37.9813561,23.7250377
184,Bill And Helena,19,ΝΕΟΣ ΚΟΣΜΟΣ,37.96322,23.72921
185,Ted,22,ΠΛΑΤΕΙΑ ΑΤΤΙΚΗΣ,37.9958289,23.7294696
186,Evan&Anetta,68,ΕΜΠΟΡΙΚΟ ΤΡΙΓΩΝΟ-ΠΛΑΚΑ,37.97681,23.72748
187,Dropebnb,49,ΜΟΥΣΕΙΟ-ΕΞΑΡΧΕΙΑ-ΝΕΑΠΟΛΗ,37.9868075107795,23.730014213674533
188,Alexandros,4,ΕΜΠΟΡΙΚΟ ΤΡΙΓΩΝΟ-ΠΛΑΚΑ,37.97186,23.73217
189,Stella And Nikos,25,ΚΟΥΚΑΚΙ-ΜΑΚΡΥΓΙΑΝΝΗ,37.96348875122471,23.722468447126733
190,Fiona,8,ΠΛΑΤΕΙΑ ΑΜΕΡΙΚΗΣ,38.00769,23.73321
191,Ethereal,10,ΕΜΠΟΡΙΚΟ ΤΡΙΓΩΝΟ-ΠΛΑΚΑ,37.9759756,23.7321331
192,KASO Homes,4,ΝΕΟΣ ΚΟΣΜΟΣ,37.9639397,23.7291445
193,Upstreet,121,ΚΟΥΚΑΚΙ-ΜΑΚΡΥΓΙΑΝΝΗ,37.96586,23.72643
194,Roubina,20,ΚΟΥΚΑΚΙ-ΜΑΚΡΥΓΙΑΝΝΗ,37.96549715093191,23.72775354585936
195,Nasos,41,ΚΟΥΚΑΚΙ-ΜΑΚΡΥΓΙΑΝΝΗ,37.9682846069336,23.72687530517578
196,MyGreek,20,ΚΟΥΚΑΚΙ-ΜΑΚΡΥΓΙΑΝΝΗ,37.96451,23.72285
197,Martine,4,ΠΑΤΗΣΙΑ,38.01481,23.7367
198,NOHO Boutique,19,ΘΗΣΕΙΟ,37.9743147,23.7166672
199,Κωνσταντινος,22,ΑΚΡΟΠΟΛΗ,37.9652123,23.720167
200,David,12,ΖΑΠΠΕΙΟ,37.96672199707404,23.731773452792112
201,Nikolaos,4,ΖΑΠΠΕΙΟ,37.969498,23.731466
202,Ethereal,10,ΕΜΠΟΡΙΚΟ ΤΡΙΓΩΝΟ-ΠΛΑΚΑ,37.9759756,23.7321331
203,Homer & Isabella,58,ΝΕΟΣ ΚΟΣΜΟΣ,37.9642614,23.7289841
204,Mlg,19,ΕΜΠΟΡΙΚΟ ΤΡΙΓΩΝΟ-ΠΛΑΚΑ,37.9772076,23.7286277
205,Mgv,101,ΠΑΓΚΡΑΤΙ,37.97145181708417,23.7502365373916
206,Athens Houses,19,ΚΥΨΕΛΗ,37.99921248742596,23.73493413353267
207,Chris,13,ΣΕΠΟΛΙΑ,38.00676,23.71648
208,Home,23,ΝΙΡΒΑΝΑ,38.01232688590734,23.722909241020496
209,Στυλιανη,3,ΝΕΟΣ ΚΟΣΜΟΣ,37.96229787635289,23.72943570000001
210,Luxurious,3,ΑΝΩ ΚΥΨΕΛΗ,38.00741,23.74105
211,Bill & John,30,ΚΟΛΩΝΑΚΙ,37.979172,23.737612
212,Ran,6,ΠΑΓΚΡΑΤΙ,37.964548,23.746074
213,Phaedrus Living,34,ΚΟΥΚΑΚΙ-ΜΑΚΡΥΓΙΑΝΝΗ,37.96300663848098,23.72054346084316
214,Ana,4,ΝΕΟΣ ΚΟΣΜΟΣ,37.95794991921505,23.728825543282465
215,NOHO Boutique,19,ΚΟΥΚΑΚΙ-ΜΑΚΡΥΓΙΑΝΝΗ,37.96444,23.72397
216,Monkfish Trading MON IKE,26,ΑΓΙΟΣ ΚΩΝΣΤΑΝΤΙΝΟΣ-ΠΛΑΤΕΙΑ ΒΑΘΗΣ,37.9913588094616,23.723509225501022
217,V² Development,27,ΑΓΙΟΣ ΝΙΚΟΛΑΟΣ,38.0056005,23.7277909
218,Apostolia,4,ΕΜΠΟΡΙΚΟ ΤΡΙΓΩΝΟ-ΠΛΑΚΑ,37.9778,23.73268
219,Maria,22,ΚΟΥΚΑΚΙ-ΜΑΚΡΥΓΙΑΝΝΗ,37.9626531,23.7222305
220,Vincent,6,ΠΑΤΗΣΙΑ,38.01487228645436,23.733242536927232
221,Anna & Efi,6,ΕΜΠΟΡΙΚΟ ΤΡΙΓΩΝΟ-ΠΛΑΚΑ,37.9766,23.72617
222,Chris,14,ΕΜΠΟΡΙΚΟ ΤΡΙΓΩΝΟ-ΠΛΑΚΑ,37.97896,23.72946
223,Κωνσταντινος,22,ΣΤΑΔΙΟ,37.96472373368611,23.74155400489349
224,Stella And Nikos,25,ΚΟΥΚΑΚΙ-ΜΑΚΡΥΓΙΑΝΝΗ,37.96899194668903,23.73093107133176
225,Toni,47,ΚΟΥΚΑΚΙ-ΜΑΚΡΥΓΙΑΝΝΗ,37.96733,23.72668
226,Miglen,3,ΕΜΠΟΡΙΚΟ ΤΡΙΓΩΝΟ-ΠΛΑΚΑ,37.98607,23.72587
227,Greecing,17,ΣΤΑΔΙΟ,37.9703859,23.7417369
228,Nikos,26,ΑΚΡΟΠΟΛΗ,37.96812,23.71328
229,Evangelos,15,ΠΛΑΤΕΙΑ ΑΤΤΙΚΗΣ,37.99618892927125,23.72755385533217
230,Παναγιώτης,44,ΠΛΑΤΕΙΑ ΑΤΤΙΚΗΣ,37.9978361,23.732058
231,Berna,11,ΑΓΙΟΣ ΚΩΝΣΤΑΝΤΙΝΟΣ-ΠΛΑΤΕΙΑ ΒΑΘΗΣ,37.98724,23.72616
232,Flavia,19,ΜΟΥΣΕΙΟ-ΕΞΑΡΧΕΙΑ-ΝΕΑΠΟΛΗ,37.98729,23.74311
233,Goldally,30,ΑΓΙΟΣ ΝΙΚΟΛΑΟΣ,38.006571,23.7277889
234,Giorgos,3,ΚΕΡΑΜΕΙΚΟΣ,37.98149,23.71817
235,Maryland,56,ΓΟΥΒΑ,37.96134,23.74223
236,Nestor,12,ΚΥΨΕΛΗ,37.99876,23.73327
237,Melina,27,ΠΕΤΡΑΛΩΝΑ,37.96859,23.70409
238,Blueground,26,ΚΟΛΩΝΑΚΙ,37.98029040000001,23.7398563
239,Βασιλης,6,ΓΟΥΔΙ,37.98579678495605,23.76727133989334
240,Stavros,15,ΑΓΙΟΣ ΚΩΝΣΤΑΝΤΙΝΟΣ-ΠΛΑΤΕΙΑ ΒΑΘΗΣ,37.98687200836392,23.72811103558198
241,Antonis,3,ΚΟΥΚΑΚΙ-ΜΑΚΡΥΓΙΑΝΝΗ,37.9638883,23.7203554
242,Nikolaos,7,ΕΜΠΟΡΙΚΟ ΤΡΙΓΩΝΟ-ΠΛΑΚΑ,37.98465,23.72958
243,Nick,9,ΖΑΠΠΕΙΟ,37.96738,23.73496
244,Roubina,20,ΣΤΑΔΙΟ,37.97008857558233,23.7421858791252
245,Pristine Urban Suites,13,ΕΜΠΟΡΙΚΟ ΤΡΙΓΩΝΟ-ΠΛΑΚΑ,37.9794,23.73063
246,WSD Home Inn,27,ΠΛΑΤΕΙΑ ΑΜΕΡΙΚΗΣ,38.00224406525432,23.72978781058104
247,Monkfish Trading MON IKE,26,ΠΛΑΤΕΙΑ ΑΤΤΙΚΗΣ,37.99409,23.72646
248,Monkfish Trading MON IKE,26,ΑΜΠΕΛΟΚΗΠΟΙ,37.98655,23.76401
249,Natalia,3,ΖΑΠΠΕΙΟ,37.9678367,23.7365877
250,Pietro,5,ΑΜΠΕΛΟΚΗΠΟΙ,37.9930986,23.7603637
251,Raise Team,42,ΕΛΛΗΝΟΡΩΣΩΝ,37.9991779,23.7715042
252,HAUSolutions,20,ΠΑΓΚΡΑΤΙ,37.96563700000001,23.7478731
253,Connect Apartments & Suites,8,ΑΓΙΟΣ ΚΩΝΣΤΑΝΤΙΝΟΣ-ΠΛΑΤΕΙΑ ΒΑΘΗΣ,37.98611,23.72185
254,Yorgos,3,ΑΜΠΕΛΟΚΗΠΟΙ,37.99324,23.76516
255,Valerie,4,ΕΜΠΟΡΙΚΟ ΤΡΙΓΩΝΟ-ΠΛΑΚΑ,37.9746575,23.7317888
256,Mgv,101,ΠΕΤΡΑΛΩΝΑ,37.96626,23.70482
257,Anny & Emilia,9,ΚΟΥΚΑΚΙ-ΜΑΚΡΥΓΙΑΝΝΗ,37.9660535,23.7267242
258,HostPal,7,ΓΚΑΖΙ,37.9776079,23.712078
259,Solonos,20,ΑΓΙΟΣ ΚΩΝΣΤΑΝΤΙΝΟΣ-ΠΛΑΤΕΙΑ ΒΑΘΗΣ,37.99123832795311,23.728986305382577
260,Viktor,33,ΑΓΙΟΣ ΝΙΚΟΛΑΟΣ,38.01108551945386,23.72852024220655
261,Evan&Anetta,68,ΚΕΡΑΜΕΙΚΟΣ,37.9831288,23.7155182
262,Maryland,56,ΑΜΠΕΛΟΚΗΠΟΙ,37.98872,23.75197
263,Evan&Anetta,68,ΠΑΓΚΡΑΤΙ,37.9699213,23.7439384
264,Evan&Anetta,68,ΕΜΠΟΡΙΚΟ ΤΡΙΓΩΝΟ-ΠΛΑΚΑ,37.9857834,23.7296504
265,Dimitris,28,ΜΟΥΣΕΙΟ-ΕΞΑΡΧΕΙΑ-ΝΕΑΠΟΛΗ,37.98586969999999,23.7426202
266,Athens Stay,6,ΠΛΑΤΕΙΑ ΑΤΤΙΚΗΣ,37.99571,23.72381
267,Stratis,3,ΕΜΠΟΡΙΚΟ ΤΡΙΓΩΝΟ-ΠΛΑΚΑ,37.97632,23.72447
268,Greecing,17,ΝΕΟΣ ΚΟΣΜΟΣ,37.9603306,23.7306178
269,Marianna,19,ΓΟΥΔΙ,37.98597,23.7612
270,Rea,3,ΠΑΓΚΡΑΤΙ,37.9669409,23.7498947
271,Nikolas,3,ΠΛΑΤΕΙΑ ΑΤΤΙΚΗΣ,37.99176,23.72871
272,Harry,64,ΜΟΥΣΕΙΟ-ΕΞΑΡΧΕΙΑ-ΝΕΑΠΟΛΗ,37.98909378051758,23.73043441772461
273,Miltos,5,ΑΚΡΟΠΟΛΗ,37.97113,23.73001
274,Dimkat,4,ΕΜΠΟΡΙΚΟ ΤΡΙΓΩΝΟ-ΠΛΑΚΑ,37.97490104333032,23.733161962565603
275,Vasiliki,6,ΑΚΡΟΠΟΛΗ,37.97291,23.72031
276,Aris,8,ΘΗΣΕΙΟ,37.9750012894984,23.7145883962512
277,Raise Team,42,ΝΕΟΣ ΚΟΣΜΟΣ,37.96697,23.73009
278,Ιωάννα,6,ΕΜΠΟΡΙΚΟ ΤΡΙΓΩΝΟ-ΠΛΑΚΑ,37.97385,23.73096
279,Diana'S Home,6,ΕΜΠΟΡΙΚΟ ΤΡΙΓΩΝΟ-ΠΛΑΚΑ,37.97336533980969,23.731514319348832
280,Evangelos,15,ΠΛΑΤΕΙΑ ΑΤΤΙΚΗΣ,37.99528772947096,23.727379930065496
281,Emie,3,ΠΕΤΡΑΛΩΝΑ,37.96929,23.70753
282,Ευστρατιος,5,ΕΜΠΟΡΙΚΟ ΤΡΙΓΩΝΟ-ΠΛΑΚΑ,37.98249,23.73245
283,Aris,8,ΕΜΠΟΡΙΚΟ ΤΡΙΓΩΝΟ-ΠΛΑΚΑ,37.98027,23.72807
284,Evan&Anetta,68,ΘΗΣΕΙΟ,37.97722,23.72308
285,Evelin,7,ΚΟΥΚΑΚΙ-ΜΑΚΡΥΓΙΑΝΝΗ,37.96686,23.72488
286,Altanay,4,ΜΟΥΣΕΙΟ-ΕΞΑΡΧΕΙΑ-ΝΕΑΠΟΛΗ,37.98556,23.73619
287,Nikos,14,ΚΥΨΕΛΗ,38.00193,23.73938
288,Nasos,41,ΚΟΥΚΑΚΙ-ΜΑΚΡΥΓΙΑΝΝΗ,37.965729,23.723759
289,Ethereal,10,ΕΜΠΟΡΙΚΟ ΤΡΙΓΩΝΟ-ΠΛΑΚΑ,37.97504,23.73189
290,Tourigo,14,1Ο ΝΕΚΡΟΤΑΦΕΙΟ,37.963302,23.7414115
291,Liv,9,ΑΜΠΕΛΟΚΗΠΟΙ,37.9912169,23.7664927
292,HAUSolutions,20,ΑΜΠΕΛΟΚΗΠΟΙ,37.9888,23.75399
293,Advance Helix Development,8,ΠΛΑΤΕΙΑ ΑΤΤΙΚΗΣ,37.9960469,23.7311134
294,Ζωή,11,ΖΑΠΠΕΙΟ,37.9672,23.73115
295,Ιωάννης Άγγελος,18,ΕΜΠΟΡΙΚΟ ΤΡΙΓΩΝΟ-ΠΛΑΚΑ,37.97835557341275,23.723846644180306
296,Hermes,10,ΕΜΠΟΡΙΚΟ ΤΡΙΓΩΝΟ-ΠΛΑΚΑ,37.97293,23.73207
297,Maryland,56,ΝΕΟΣ ΚΟΣΜΟΣ,37.95799922146869,23.73349025855886
298,Veronica,4,ΓΟΥΒΑ,37.96151,23.74315
299,Spyros,4,ΝΙΡΒΑΝΑ,38.00347,23.72519
300,Codeathena,7,ΚΟΥΚΑΚΙ-ΜΑΚΡΥΓΙΑΝΝΗ,37.96795,23.72618
301,KASO Homes,4,ΝΕΟΣ ΚΟΣΜΟΣ,37.9629993,23.7283488
302,Phaedrus Living,34,ΚΟΥΚΑΚΙ-ΜΑΚΡΥΓΙΑΝΝΗ,37.96552545047447,23.72493015499552
303,Tèo,49,ΠΛΑΤΕΙΑ ΑΤΤΙΚΗΣ,37.9995,23.7282
304,Κοσμας,3,ΑΜΠΕΛΟΚΗΠΟΙ,37.99064194820091,23.756274475683878
305,Chryssa,9,ΣΤΑΔΙΟ,37.96712,23.73681
306,Sarn,18,ΕΜΠΟΡΙΚΟ ΤΡΙΓΩΝΟ-ΠΛΑΚΑ,37.9776397,23.7286596
307,Local Host,12,ΚΟΥΚΑΚΙ-ΜΑΚΡΥΓΙΑΝΝΗ,37.96199,23.72194
308,Michalis,16,ΠΛΑΤΕΙΑ ΑΤΤΙΚΗΣ,37.99836,23.72397
309,Sissy,7,ΜΟΥΣΕΙΟ-ΕΞΑΡΧΕΙΑ-ΝΕΑΠΟΛΗ,37.9914,23.73284
310,Alex,6,ΝΕΟΣ ΚΟΣΜΟΣ,37.95738,23.72112
311,Homer & Isabella,58,ΚΟΥΚΑΚΙ-ΜΑΚΡΥΓΙΑΝΝΗ,37.9619696,23.7202616
312,Harry,3,ΚΟΛΩΝΑΚΙ,37.97829,23.74995
313,Gpm,36,ΑΝΩ ΚΥΨΕΛΗ,38.00477732822005,23.738745634638374
314,Manos,8,ΝΕΟΣ ΚΟΣΜΟΣ,37.9585,23.72387
315,Home Story,14,ΜΟΥΣΕΙΟ-ΕΞΑΡΧΕΙΑ-ΝΕΑΠΟΛΗ,37.9865105263625,23.730914027809867
316,Harry,64,ΝΕΟΣ ΚΟΣΜΟΣ,37.965355,23.731039
317,Konstantinos,20,ΑΚΡΟΠΟΛΗ,37.96819,23.72413
318,Harry,64,ΚΟΥΚΑΚΙ-ΜΑΚΡΥΓΙΑΝΝΗ,37.968506,23.730911
319,Leonidas,22,ΝΕΟΣ ΚΟΣΜΟΣ,37.96427,23.7315
320,Petros,11,ΜΟΥΣΕΙΟ-ΕΞΑΡΧΕΙΑ-ΝΕΑΠΟΛΗ,37.9880314,23.7428736
321,George,57,ΚΟΛΩΝΑΚΙ,37.98017,23.73957
322,Gianttrip,30,ΜΟΥΣΕΙΟ-ΕΞΑΡΧΕΙΑ-ΝΕΑΠΟΛΗ,37.98992,23.73532
323,Segal Group,19,ΑΝΩ ΠΑΤΗΣΙΑ,38.02184048098159,23.73444366946029
324,Nasos,41,ΕΜΠΟΡΙΚΟ ΤΡΙΓΩΝΟ-ΠΛΑΚΑ,37.976546,23.7314156
325,Evangelos,15,ΠΛΑΤΕΙΑ ΑΤΤΙΚΗΣ,37.99660895302801,23.729735390062995
326,Upstreet,121,ΖΑΠΠΕΙΟ,37.96751,23.73136
327,Blue,10,ΚΟΥΚΑΚΙ-ΜΑΚΡΥΓΙΑΝΝΗ,37.965737935102965,23.7262408067459
328,Χριστινα,3,ΑΓΙΟΣ ΕΛΕΥΘΕΡΙΟΣ,38.01663,23.72953
329,Holidu,4,ΑΓΙΟΣ ΝΙΚΟΛΑΟΣ,38.0092871,23.7284431
330,Katerina,3,ΝΕΟΣ ΚΟΣΜΟΣ,37.96321,23.72963
331,Travel Inn Greece,5,ΕΜΠΟΡΙΚΟ ΤΡΙΓΩΝΟ-ΠΛΑΚΑ,37.97417613604516,23.732178709574857
332,Alexandros,11,ΕΜΠΟΡΙΚΟ ΤΡΙΓΩΝΟ-ΠΛΑΚΑ,37.97863,23.72416
333,Mint,9,ΜΟΥΣΕΙΟ-ΕΞΑΡΧΕΙΑ-ΝΕΑΠΟΛΗ,37.987247561764136,23.74214122380724
334,Κυριακος,3,ΜΟΥΣΕΙΟ-ΕΞΑΡΧΕΙΑ-ΝΕΑΠΟΛΗ,37.98984,23.73621
335,Iordanka,5,ΑΚΡΟΠΟΛΗ,37.96851377707007,23.726709635254554
336,Despina,3,ΕΜΠΟΡΙΚΟ ΤΡΙΓΩΝΟ-ΠΛΑΚΑ,37.9712,23.73066
337,Παναγιώτης,44,ΠΛΑΤΕΙΑ ΑΤΤΙΚΗΣ,37.99252,23.73076
338,Only ElPilar,10,ΜΟΥΣΕΙΟ-ΕΞΑΡΧΕΙΑ-ΝΕΑΠΟΛΗ,37.9849061,23.7335535
339,Angelos,3,ΕΜΠΟΡΙΚΟ ΤΡΙΓΩΝΟ-ΠΛΑΚΑ,37.9776397,23.7286596
340,Palaiopanos,3,ΕΜΠΟΡΙΚΟ ΤΡΙΓΩΝΟ-ΠΛΑΚΑ,37.9723,23.73235
341,SharingXchange,8,ΕΜΠΟΡΙΚΟ ΤΡΙΓΩΝΟ-ΠΛΑΚΑ,37.97197,23.7304
342,Wyz Attiki,6,ΠΛΑΤΕΙΑ ΑΤΤΙΚΗΣ,37.995201,23.722889
343,Despina,3,ΕΜΠΟΡΙΚΟ ΤΡΙΓΩΝΟ-ΠΛΑΚΑ,37.97154,23.7304
344,Alexandros,11,ΕΜΠΟΡΙΚΟ ΤΡΙΓΩΝΟ-ΠΛΑΚΑ,37.97896,23.72342
345,Roubina,20,ΝΕΟΣ ΚΟΣΜΟΣ,37.96562430855068,23.729048231225008
346,GK Properties,25,ΕΜΠΟΡΙΚΟ ΤΡΙΓΩΝΟ-ΠΛΑΚΑ,37.97420169999999,23.7331905
347,Tia & Mike,11,ΚΟΥΚΑΚΙ-ΜΑΚΡΥΓΙΑΝΝΗ,37.96128,23.7202
348,Stelios,22,ΠΛΑΤΕΙΑ ΑΤΤΙΚΗΣ,38.002205,23.72533
349,Nikos,14,ΑΜΠΕΛΟΚΗΠΟΙ,37.995826721191406,23.766355514526367
350,Ran,6,ΠΑΓΚΡΑΤΙ,37.96642000035067,23.75269766137696
351,Nestor,12,ΑΓΙΟΣ ΚΩΝΣΤΑΝΤΙΝΟΣ-ΠΛΑΤΕΙΑ ΒΑΘΗΣ,37.98929990205162,23.725979402661324
352,O'Shawn,5,ΚΟΥΚΑΚΙ-ΜΑΚΡΥΓΙΑΝΝΗ,37.96791,23.72679
353,Harry,64,ΠΕΔΙΟ ΑΡΕΩΣ,37.99432,23.73289
354,Constantinos,21,ΕΜΠΟΡΙΚΟ ΤΡΙΓΩΝΟ-ΠΛΑΚΑ,37.97877,23.72946
355,George,57,ΝΕΟΣ ΚΟΣΜΟΣ,37.95921,23.7354
356,Harry,64,ΚΕΡΑΜΕΙΚΟΣ,37.9816848,23.713177
357,Konstantinos,20,ΜΟΥΣΕΙΟ-ΕΞΑΡΧΕΙΑ-ΝΕΑΠΟΛΗ,37.987329,23.7356266
358,Top,3,ΠΕΤΡΑΛΩΝΑ,37.96416,23.70933
359,Evangelos,15,ΠΛΑΤΕΙΑ ΑΤΤΙΚΗΣ,37.99501585601161,23.729606820710497
360,Daniel,3,ΑΓΙΟΣ ΚΩΝΣΤΑΝΤΙΝΟΣ-ΠΛΑΤΕΙΑ ΒΑΘΗΣ,37.98524,23.72439
361,Marianna,19,ΓΟΥΔΙ,37.98548,23.76186
362,Konstantinos,5,ΠΑΤΗΣΙΑ,38.01387,23.73707
363,Monkfish Trading MON IKE,26,ΓΟΥΔΙ,37.9857963,23.761169
364,The Circle Inn,4,ΠΕΤΡΑΛΩΝΑ,37.96954,23.70866
365,Loukas,40,ΠΛΑΤΕΙΑ ΑΤΤΙΚΗΣ,37.99368,23.73016
366,Gpm,36,ΝΕΟΣ ΚΟΣΜΟΣ,37.96219,23.72728
367,Παναγιώτης,44,ΚΥΨΕΛΗ,37.99991,23.7348
368,Home,23,ΑΝΩ ΚΥΨΕΛΗ,38.00555,23.73652
369,Maryland,56,ΑΜΠΕΛΟΚΗΠΟΙ,37.98766,23.76629
370,Melina,27,ΠΕΤΡΑΛΩΝΑ,37.9709840965968,23.70789936514054
371,Evelin,7,ΘΗΣΕΙΟ,37.97804,23.72106
372,Li Yon,3,ΑΜΠΕΛΟΚΗΠΟΙ,37.9922561,23.7545427
373,Tourigo,14,ΝΕΟΣ ΚΟΣΜΟΣ,37.95728,23.72691
374,Vasiliki,4,ΠΑΓΚΡΑΤΙ,37.96898,23.75202
375,Harris,5,ΚΟΛΩΝΑΚΙ,37.97709,23.74627
376,Connect Apartments & Suites,8,ΑΓΙΟΣ ΚΩΝΣΤΑΝΤΙΝΟΣ-ΠΛΑΤΕΙΑ ΒΑΘΗΣ,37.98684,23.71847
377,Adnan,3,ΣΤΑΔΙΟ,37.96836294687257,23.74371305627724
378,Antreas,20,ΑΜΠΕΛΟΚΗΠΟΙ,37.99126816057102,23.764578662136252
379,Oltian,13,ΘΗΣΕΙΟ,37.97583061733149,23.71577080003501
380,Upstreet,121,ΚΟΥΚΑΚΙ-ΜΑΚΡΥΓΙΑΝΝΗ,37.96952,23.73104
381,Nikos,26,ΚΟΥΚΑΚΙ-ΜΑΚΡΥΓΙΑΝΝΗ,37.96882,23.72987
382,Neslihan,3,ΕΜΠΟΡΙΚΟ ΤΡΙΓΩΝΟ-ΠΛΑΚΑ,37.972269962938206,23.732209476486947
383,Nasos,15,ΘΗΣΕΙΟ,37.97390847343891,23.714269971726733
384,Lamda,3,ΘΗΣΕΙΟ,37.97567,23.71743
385,Greecing,17,ΚΟΥΚΑΚΙ-ΜΑΚΡΥΓΙΑΝΝΗ,37.9663614,23.7275791
386,Ioannis,3,ΝΕΟΣ ΚΟΣΜΟΣ,37.96632,23.73317
387,George,11,ΚΟΥΚΑΚΙ-ΜΑΚΡΥΓΙΑΝΝΗ,37.968909,23.729776
388,Tourigo,14,ΘΗΣΕΙΟ,37.97542,23.7169
389,Home Story,14,ΑΓΙΟΣ ΚΩΝΣΤΑΝΤΙΝΟΣ-ΠΛΑΤΕΙΑ ΒΑΘΗΣ,37.98289,23.72358
390,Giorgos,3,ΖΑΠΠΕΙΟ,37.96826,23.7311
391,George,4,ΘΗΣΕΙΟ,37.97843,23.72222
392,Important Group,5,ΘΗΣΕΙΟ,37.97423,23.71936
393,Marietta,8,ΘΗΣΕΙΟ,37.9774,23.7223
394,Hermes,10,ΕΜΠΟΡΙΚΟ ΤΡΙΓΩΝΟ-ΠΛΑΚΑ,37.97254,23.73065
395,Ronen,33,ΕΜΠΟΡΙΚΟ ΤΡΙΓΩΝΟ-ΠΛΑΚΑ,37.98035408226109,23.72356952055162
396,VKbnb,11,ΠΕΔΙΟ ΑΡΕΩΣ,37.99137,23.740629
397,Ko,13,ΕΜΠΟΡΙΚΟ ΤΡΙΓΩΝΟ-ΠΛΑΚΑ,37.9786914,23.7288171
398,Thomas,4,ΚΟΥΚΑΚΙ-ΜΑΚΡΥΓΙΑΝΝΗ,37.96463954917936,23.72295822948217
399,Pan,3,ΚΟΥΚΑΚΙ-ΜΑΚΡΥΓΙΑΝΝΗ,37.96777,23.729748
400,Harry,64,ΚΟΥΚΑΚΙ-ΜΑΚΡΥΓΙΑΝΝΗ,37.964165,23.724165
401,George,9,ΕΜΠΟΡΙΚΟ ΤΡΙΓΩΝΟ-ΠΛΑΚΑ,37.97845,23.72951
402,Youla,18,ΠΑΓΚΡΑΤΙ,37.97355,23.74935
403,George,12,ΓΚΑΖΙ,37.97767,23.71122
404,Ira & Oleg,37,ΑΓΙΟΣ ΚΩΝΣΤΑΝΤΙΝΟΣ-ΠΛΑΤΕΙΑ ΒΑΘΗΣ,37.98299,23.71995
405,Anna Maria,4,ΠΛΑΤΕΙΑ ΑΤΤΙΚΗΣ,37.99965,23.72893
406,Nikolaos,13,ΕΜΠΟΡΙΚΟ ΤΡΙΓΩΝΟ-ΠΛΑΚΑ,37.9826397,23.7325957
407,Αριστειδης,33,ΣΤΑΘΜΟΣ ΛΑΡΙΣΗΣ,37.99754,23.71957
408,Petros,7,ΕΜΠΟΡΙΚΟ ΤΡΙΓΩΝΟ-ΠΛΑΚΑ,37.977234,23.730198
409,Effrossyni,4,ΚΥΨΕΛΗ,37.99734,23.7329
410,Hestia,40,ΜΟΥΣΕΙΟ-ΕΞΑΡΧΕΙΑ-ΝΕΑΠΟΛΗ,37.983749,23.738482
411,Mandra,8,ΜΟΥΣΕΙΟ-ΕΞΑΡΧΕΙΑ-ΝΕΑΠΟΛΗ,37.98254,23.73785
412,Fiona,8,ΝΕΟΣ ΚΟΣΜΟΣ,37.95621,23.72792
413,Ευστρατιος,5,ΕΜΠΟΡΙΚΟ ΤΡΙΓΩΝΟ-ΠΛΑΚΑ,37.98251,23.73228
414,Gianttrip,30,ΚΟΛΩΝΑΚΙ,37.97594,23.74522
415,Pagona,11,ΕΜΠΟΡΙΚΟ ΤΡΙΓΩΝΟ-ΠΛΑΚΑ,37.9808972,23.7267217
416,Antonis,14,ΕΜΠΟΡΙΚΟ ΤΡΙΓΩΝΟ-ΠΛΑΚΑ,37.98185408694253,23.72939470000002
417,Nikos,14,ΜΟΥΣΕΙΟ-ΕΞΑΡΧΕΙΑ-ΝΕΑΠΟΛΗ,37.98587,23.73766
418,Tim,4,ΜΟΥΣΕΙΟ-ΕΞΑΡΧΕΙΑ-ΝΕΑΠΟΛΗ,37.99069,23.7335
419,Giannis,5,ΕΜΠΟΡΙΚΟ ΤΡΙΓΩΝΟ-ΠΛΑΚΑ,37.976295,23.729813
420,Νικολαος,4,ΑΓΙΟΣ ΚΩΝΣΤΑΝΤΙΝΟΣ-ΠΛΑΤΕΙΑ ΒΑΘΗΣ,37.9906998,23.7225378
421,Raise Team,42,ΝΕΟΣ ΚΟΣΜΟΣ,37.96603,23.73083
422,Elite Ermou,6,ΕΜΠΟΡΙΚΟ ΤΡΙΓΩΝΟ-ΠΛΑΚΑ,37.97552,23.72696
423,Codeathena,7,ΕΜΠΟΡΙΚΟ ΤΡΙΓΩΝΟ-ΠΛΑΚΑ,37.97066,23.73095
424,SharingXchange,8,ΕΜΠΟΡΙΚΟ ΤΡΙΓΩΝΟ-ΠΛΑΚΑ,37.98341,23.72651
425,O'Shawn,5,ΕΜΠΟΡΙΚΟ ΤΡΙΓΩΝΟ-ΠΛΑΚΑ,37.97439,23.73147
426,Antonis,14,ΑΚΡΟΠΟΛΗ,37.97238241295977,23.72830703677062
427,Giannis,10,ΑΓΙΟΣ ΚΩΝΣΤΑΝΤΙΝΟΣ-ΠΛΑΤΕΙΑ ΒΑΘΗΣ,37.98313,23.72213
428,TravelStaytion,5,ΚΟΛΩΝΑΚΙ,37.97639,23.74152
429,Sofi,7,ΕΜΠΟΡΙΚΟ ΤΡΙΓΩΝΟ-ΠΛΑΚΑ,37.98032724445776,23.728907995935497
430,Elie,3,ΚΟΥΚΑΚΙ-ΜΑΚΡΥΓΙΑΝΝΗ,37.96747,23.72858
431,Meros,4,ΑΚΡΟΠΟΛΗ,37.973087,23.720461
432,Georgina,6,ΕΜΠΟΡΙΚΟ ΤΡΙΓΩΝΟ-ΠΛΑΚΑ,37.97513,23.73258
433,Raise Team,42,ΝΕΟΣ ΚΟΣΜΟΣ,37.96632,23.73108
434,Varvara,3,ΚΟΥΚΑΚΙ-ΜΑΚΡΥΓΙΑΝΝΗ,37.9661,23.72502
435,Co And Living,7,ΜΟΥΣΕΙΟ-ΕΞΑΡΧΕΙΑ-ΝΕΑΠΟΛΗ,37.98531,23.74165
436,Leonidas,22,ΖΑΠΠΕΙΟ,37.97004,23.73156
437,Παναγιώτης,44,ΜΟΥΣΕΙΟ-ΕΞΑΡΧΕΙΑ-ΝΕΑΠΟΛΗ,37.98901,23.73004
438,Spittaki,3,ΕΜΠΟΡΙΚΟ ΤΡΙΓΩΝΟ-ΠΛΑΚΑ,37.97849,23.7242
439,MyGreek,20,ΑΚΡΟΠΟΛΗ,37.96292,23.71745
440,Tia & Mike,11,ΕΜΠΟΡΙΚΟ ΤΡΙΓΩΝΟ-ΠΛΑΚΑ,37.97435,23.73267
441,Bill And Helena,19,ΕΜΠΟΡΙΚΟ ΤΡΙΓΩΝΟ-ΠΛΑΚΑ,37.97516,23.73407
442,Raise Team,42,ΕΜΠΟΡΙΚΟ ΤΡΙΓΩΝΟ-ΠΛΑΚΑ,37.978412,23.7286161
443,Homer & Isabella,58,ΚΟΥΚΑΚΙ-ΜΑΚΡΥΓΙΑΝΝΗ,37.9645415,23.7221751
444,Chris,13,ΠΛΑΤΕΙΑ ΑΤΤΙΚΗΣ,38.00013,23.72495
445,Kostas,12,ΒΟΤΑΝΙΚΟΣ,37.97817,23.70866
446,Romanos,20,ΑΓΙΟΣ ΕΛΕΥΘΕΡΙΟΣ,38.02435,23.73278
447,Nestor,12,ΠΛΑΤΕΙΑ ΑΤΤΙΚΗΣ,37.99504,23.72718
448,Andreas,6,ΕΜΠΟΡΙΚΟ ΤΡΙΓΩΝΟ-ΠΛΑΚΑ,37.9776622434525,23.73114478650817
449,Tonia,8,ΛΥΚΑΒΗΤΤΟΣ,37.98156,23.75034
450,Monkfish Trading MON IKE,26,ΜΟΥΣΕΙΟ-ΕΞΑΡΧΕΙΑ-ΝΕΑΠΟΛΗ,37.98828287472097,23.74954676530624
451,Only ElPilar,10,ΜΟΥΣΕΙΟ-ΕΞΑΡΧΕΙΑ-ΝΕΑΠΟΛΗ,37.9849061,23.7335535
452,Central Five,5,ΠΕΤΡΑΛΩΝΑ,37.9686729,23.7071801
453,Konstantinos,20,ΝΕΟΣ ΚΟΣΜΟΣ,37.95614,23.71636
454,Evan&Anetta,68,ΕΜΠΟΡΙΚΟ ΤΡΙΓΩΝΟ-ΠΛΑΚΑ,37.979359,23.72477
455,Oltian,13,ΘΗΣΕΙΟ,37.97414,23.71539
456,Dimitris,7,ΓΚΑΖΙ,37.97702,23.71062
457,Theodoros,12,ΚΟΥΚΑΚΙ-ΜΑΚΡΥΓΙΑΝΝΗ,37.96395,23.72506
458,Evdoxia,4,ΠΛΑΤΕΙΑ ΑΤΤΙΚΗΣ,37.9979,23.7314
459,Steve,7,ΚΟΥΚΑΚΙ-ΜΑΚΡΥΓΙΑΝΝΗ,37.96818,23.72475
460,Vi,4,ΠΑΤΗΣΙΑ,38.0103,23.73424
461,Marios,8,ΕΜΠΟΡΙΚΟ ΤΡΙΓΩΝΟ-ΠΛΑΚΑ,37.97076,23.730583
462,Ethereal,10,ΕΜΠΟΡΙΚΟ ΤΡΙΓΩΝΟ-ΠΛΑΚΑ,37.9759756,23.7321331
463,Marietta,8,ΚΕΡΑΜΕΙΚΟΣ,37.9795,23.72284
464,Kοnstantinos,11,ΑΓΙΟΣ ΚΩΝΣΤΑΝΤΙΝΟΣ-ΠΛΑΤΕΙΑ ΒΑΘΗΣ,37.98262,23.71903
465,Dropebnb,49,ΝΕΟΣ ΚΟΣΜΟΣ,37.95495710000001,23.7249265
466,Nikolaos,3,ΚΟΛΩΝΑΚΙ,37.97855,23.75147
467,WSD Home Inn,27,ΚΟΥΚΑΚΙ-ΜΑΚΡΥΓΙΑΝΝΗ,37.960533242041095,23.71922831272921
468,Athina And/Or Eleni,23,ΛΥΚΑΒΗΤΤΟΣ,37.9800968,23.7453164
469,Spyros,7,ΑΚΡΟΠΟΛΗ,37.973,23.719528
470,Konstantinos,20,ΑΚΡΟΠΟΛΗ,37.9696,23.7263
471,Evelyn,20,ΕΜΠΟΡΙΚΟ ΤΡΙΓΩΝΟ-ΠΛΑΚΑ,37.9768634,23.7291254
472,Raise Team,42,ΚΟΥΚΑΚΙ-ΜΑΚΡΥΓΙΑΝΝΗ,37.96377469999999,23.7230109
473,Manos,9,ΕΜΠΟΡΙΚΟ ΤΡΙΓΩΝΟ-ΠΛΑΚΑ,37.97582,23.73255
474,Leonidas,5,ΚΟΥΚΑΚΙ-ΜΑΚΡΥΓΙΑΝΝΗ,37.9649397,23.7268163
475,Nasos,41,ΚΟΥΚΑΚΙ-ΜΑΚΡΥΓΙΑΝΝΗ,37.966366,23.727573
476,Kostas,6,ΛΥΚΑΒΗΤΤΟΣ,37.98432,23.7417
477,Ελενα,3,ΝΕΟΣ ΚΟΣΜΟΣ,37.96181,23.73208
478,Sokol,42,ΚΕΡΑΜΕΙΚΟΣ,37.981217246382094,23.718141769954347
479,Effrossyni,4,ΠΛΑΤΕΙΑ ΑΤΤΙΚΗΣ,37.99338,23.73057
480,SharingXchange,8,ΑΓΙΟΣ ΚΩΝΣΤΑΝΤΙΝΟΣ-ΠΛΑΤΕΙΑ ΒΑΘΗΣ,37.98468,23.71757
481,Θοδωρής,4,ΚΟΛΩΝΑΚΙ,37.97911,23.73906
482,Manos And Fay,13,ΝΕΟΣ ΚΟΣΜΟΣ,37.9601232,23.725885
483,Mgv,101,ΑΚΡΟΠΟΛΗ,37.96299,23.71723
484,Only ElPilar,10,ΜΟΥΣΕΙΟ-ΕΞΑΡΧΕΙΑ-ΝΕΑΠΟΛΗ,37.9849061,23.7335535
485,George,12,ΛΥΚΑΒΗΤΤΟΣ,37.98577,23.74812
486,Lucas,15,ΕΜΠΟΡΙΚΟ ΤΡΙΓΩΝΟ-ΠΛΑΚΑ,37.97424,23.73456
487,Gtrip,15,ΝΙΡΒΑΝΑ,38.01444060033882,23.72101327810161
488,Elena,7,ΚΟΥΚΑΚΙ-ΜΑΚΡΥΓΙΑΝΝΗ,37.9640663,23.7225312
489,Athens Panorama Project,8,ΠΕΔΙΟ ΑΡΕΩΣ,37.9959,23.74076
490,Eleni,23,ΘΗΣΕΙΟ,37.9762888,23.717859
491,Ioannis,6,ΠΕΤΡΑΛΩΝΑ,37.96929,23.71286
492,Tolis,4,ΝΕΟΣ ΚΟΣΜΟΣ,37.96124,23.72511
493,Upstreet,121,ΠΕΤΡΑΛΩΝΑ,37.96888,23.7119
494,Upstreet,121,ΑΜΠΕΛΟΚΗΠΟΙ,37.989258,23.76487
495,VKbnb,11,ΠΛΑΤΕΙΑ ΑΤΤΙΚΗΣ,37.9964012,23.7314235
496,Ana,4,ΝΕΟΣ ΚΟΣΜΟΣ,37.959241788161606,23.730181239169077
497,Acropolis Suites And Tours,4,ΚΟΥΚΑΚΙ-ΜΑΚΡΥΓΙΑΝΝΗ,37.96583,23.72376
498,Evans,10,ΑΓΙΟΣ ΚΩΝΣΤΑΝΤΙΝΟΣ-ΠΛΑΤΕΙΑ ΒΑΘΗΣ,37.983400611112,23.72441891499221
499,Jenny,3,ΠΛΑΤΕΙΑ ΑΜΕΡΙΚΗΣ,38.0034581,23.7272052
500,Wayhome,13,ΑΓΙΟΣ ΚΩΝΣΤΑΝΤΙΝΟΣ-ΠΛΑΤΕΙΑ ΒΑΘΗΣ,37.98281,23.72192
501,Leonidas,22,ΚΟΥΚΑΚΙ-ΜΑΚΡΥΓΙΑΝΝΗ,37.96675,23.72749
502,Pygmalion,8,ΠΕΤΡΑΛΩΝΑ,37.976639,23.713154
503,Dipsons,7,ΓΚΑΖΙ,37.97675,23.70936
504,Eleni,4,ΑΜΠΕΛΟΚΗΠΟΙ,37.982,23.75594
505,Nasos,15,ΚΟΛΩΝΑΚΙ,37.9803968,23.7369489
506,Georgios,3,ΣΕΠΟΛΙΑ,38.0053,23.72042
507,Nick,5,ΛΥΚΑΒΗΤΤΟΣ,37.9808137847087,23.74466243729648
508,Nina,18,ΑΓΙΟΣ ΝΙΚΟΛΑΟΣ,38.0107283,23.7299982
509,Home,23,ΠΕΔΙΟ ΑΡΕΩΣ,37.9955007,23.73767
510,Maryland,56,ΑΝΩ ΠΑΤΗΣΙΑ,38.0161,23.73289
511,George,57,ΘΗΣΕΙΟ,37.97564,23.7146
512,Nomad'S,6,ΠΕΤΡΑΛΩΝΑ,37.96851,23.70796
513,Shading Blue,3,ΕΜΠΟΡΙΚΟ ΤΡΙΓΩΝΟ-ΠΛΑΚΑ,37.97284,23.72735
514,Evan&Anetta,68,ΕΜΠΟΡΙΚΟ ΤΡΙΓΩΝΟ-ΠΛΑΚΑ,37.979359,23.72477
515,Keramos Athens,4,ΚΕΡΑΜΕΙΚΟΣ,37.9821,23.71466
516,Παναγιώτης,6,ΕΜΠΟΡΙΚΟ ΤΡΙΓΩΝΟ-ΠΛΑΚΑ,37.97197260447802,23.73205071719668
517,Panagiotis,20,ΘΗΣΕΙΟ,37.9757071,23.7149801
518,Only ElPilar,10,ΜΟΥΣΕΙΟ-ΕΞΑΡΧΕΙΑ-ΝΕΑΠΟΛΗ,37.9849061,23.7335535
519,Greg,5,ΙΛΙΣΙΑ,37.9743,23.74885
520,Evan&Anetta,68,ΘΗΣΕΙΟ,37.97773,23.72063
521,Vacedo,3,ΚΟΥΚΑΚΙ-ΜΑΚΡΥΓΙΑΝΝΗ,37.96172,23.71994
522,Manos,9,ΕΜΠΟΡΙΚΟ ΤΡΙΓΩΝΟ-ΠΛΑΚΑ,37.97679,23.72976
523,Ventiri,4,ΙΛΙΣΙΑ,37.97532,23.75183
524,Thanos,9,ΚΟΥΚΑΚΙ-ΜΑΚΡΥΓΙΑΝΝΗ,37.962124,23.720505
525,Mlg,19,ΕΜΠΟΡΙΚΟ ΤΡΙΓΩΝΟ-ΠΛΑΚΑ,37.97723,23.72876
526,Gtrip,15,ΚΟΥΚΑΚΙ-ΜΑΚΡΥΓΙΑΝΝΗ,37.96174,23.72177
527,Iasonas,3,ΛΥΚΑΒΗΤΤΟΣ,37.98493,23.74333
528,Vivienne And Antonis,3,ΚΟΥΚΑΚΙ-ΜΑΚΡΥΓΙΑΝΝΗ,37.9625174,23.7235025
529,Antonia,12,ΕΜΠΟΡΙΚΟ ΤΡΙΓΩΝΟ-ΠΛΑΚΑ,37.97447,23.72674
530,Home,23,ΚΟΥΚΑΚΙ-ΜΑΚΡΥΓΙΑΝΝΗ,37.96784,23.72833
531,Ulysses,7,ΕΜΠΟΡΙΚΟ ΤΡΙΓΩΝΟ-ΠΛΑΚΑ,37.97615112323214,23.727059304169288
532,Amelie,32,ΕΜΠΟΡΙΚΟ ΤΡΙΓΩΝΟ-ΠΛΑΚΑ,37.98005,23.7278
533,Gtrip,15,ΚΟΥΚΑΚΙ-ΜΑΚΡΥΓΙΑΝΝΗ,37.96617,23.72647
534,Elysium,5,ΓΟΥΔΙ,37.98044,23.75802
535,Stelios,22,ΠΑΤΗΣΙΑ,38.008602,23.736008
536,Hellenic,6,ΣΕΠΟΛΙΑ,38.00448,23.71827
537,Raise Team,42,ΕΛΛΗΝΟΡΩΣΩΝ,37.9991779,23.7715042
538,Dipsons,7,ΓΚΑΖΙ,37.977,23.70912
539,Youla,18,ΜΟΥΣΕΙΟ-ΕΞΑΡΧΕΙΑ-ΝΕΑΠΟΛΗ,37.98301,23.73603
540,MyGreek,20,ΚΟΥΚΑΚΙ-ΜΑΚΡΥΓΙΑΝΝΗ,37.96597,23.72605
541,Ivy Vacation Rentals,21,ΚΕΡΑΜΕΙΚΟΣ,37.9805167,23.7165874
542,Χριστινα,3,ΝΙΡΒΑΝΑ,38.01487,23.72226
543,Marietta,8,ΚΕΡΑΜΕΙΚΟΣ,37.97932,23.72156
544,Amelie,32,ΕΜΠΟΡΙΚΟ ΤΡΙΓΩΝΟ-ΠΛΑΚΑ,37.98037,23.72778
545,Nina,18,ΑΓΙΟΣ ΕΛΕΥΘΕΡΙΟΣ,38.0182333,23.7278712
546,Bill And Helena,19,ΑΓΙΟΣ ΚΩΝΣΤΑΝΤΙΝΟΣ-ΠΛΑΤΕΙΑ ΒΑΘΗΣ,37.99125,23.72879
547,Bill & John,30,ΓΚΑΖΙ,37.978039,23.711124
548,Evelyn,20,ΕΜΠΟΡΙΚΟ ΤΡΙΓΩΝΟ-ΠΛΑΚΑ,37.9768634,23.7291254
549,Alexander,5,ΚΟΥΚΑΚΙ-ΜΑΚΡΥΓΙΑΝΝΗ,37.96468,23.72165
550,Amelie,32,ΕΜΠΟΡΙΚΟ ΤΡΙΓΩΝΟ-ΠΛΑΚΑ,37.97906,23.72787
551,Alex,3,ΚΟΥΚΑΚΙ-ΜΑΚΡΥΓΙΑΝΝΗ,37.9648653,23.7227166
552,Athanasios,3,ΓΚΑΖΙ,37.97758,23.70871
553,Kοnstantinos,11,ΑΓΙΟΣ ΚΩΝΣΤΑΝΤΙΝΟΣ-ΠΛΑΤΕΙΑ ΒΑΘΗΣ,37.9846,23.71722
554,Nasos,41,ΚΟΥΚΑΚΙ-ΜΑΚΡΥΓΙΑΝΝΗ,37.9669733,23.728189
555,Vassilis,3,ΕΜΠΟΡΙΚΟ ΤΡΙΓΩΝΟ-ΠΛΑΚΑ,37.98013,23.72556
556,Ivy Vacation Rentals,21,ΚΟΥΚΑΚΙ-ΜΑΚΡΥΓΙΑΝΝΗ,37.9655812,23.724652
557,NOHO Boutique,19,ΚΟΥΚΑΚΙ-ΜΑΚΡΥΓΙΑΝΝΗ,37.96484,23.72386
558,Zack,9,ΛΥΚΑΒΗΤΤΟΣ,37.98397,23.74156
559,Niko And Andrea,13,ΕΜΠΟΡΙΚΟ ΤΡΙΓΩΝΟ-ΠΛΑΚΑ,37.976405,23.7305377
560,Homer & Isabella,58,ΚΟΥΚΑΚΙ-ΜΑΚΡΥΓΙΑΝΝΗ,37.96389,23.72226
561,Solonos,20,ΠΛΑΤΕΙΑ ΑΤΤΙΚΗΣ,37.99242,23.72824
562,Stefanos,8,ΠΑΓΚΡΑΤΙ,37.96972,23.74348
563,Nina,18,ΠΛΑΤΕΙΑ ΑΜΕΡΙΚΗΣ,38.0030116,23.7274435
564,Upstreet,121,ΛΥΚΑΒΗΤΤΟΣ,37.98474,23.74615
565,Giorgos,10,ΙΛΙΣΙΑ,37.97411,23.75035
566,Αριστειδης,33,ΠΛΑΤΕΙΑ ΑΤΤΙΚΗΣ,37.99466,23.72846
567,Smart Plan,8,ΑΝΩ ΚΥΨΕΛΗ,38.00328181944691,23.736185969013864
568,Petros,3,ΣΤΑΘΜΟΣ ΛΑΡΙΣΗΣ,37.99463437257744,23.72118273895194
569,Ventiri,4,ΙΛΙΣΙΑ,37.976367,23.751177
570,Heritage,22,ΕΜΠΟΡΙΚΟ ΤΡΙΓΩΝΟ-ΠΛΑΚΑ,37.97804,23.72942
571,Nelly,11,ΑΓΙΟΣ ΚΩΝΣΤΑΝΤΙΝΟΣ-ΠΛΑΤΕΙΑ ΒΑΘΗΣ,37.98392,23.71901
572,Connect Apartments & Suites,8,ΑΓΙΟΣ ΚΩΝΣΤΑΝΤΙΝΟΣ-ΠΛΑΤΕΙΑ ΒΑΘΗΣ,37.98686,23.71866
573,Steve,7,ΣΤΑΔΙΟ,37.96659880916327,23.73591814256596
574,Upstreet,121,ΛΥΚΑΒΗΤΤΟΣ,37.98442,23.74601
575,Stratos,3,ΚΟΥΚΑΚΙ-ΜΑΚΡΥΓΙΑΝΝΗ,37.96750666966051,23.72908769311307
576,George,9,ΕΜΠΟΡΙΚΟ ΤΡΙΓΩΝΟ-ΠΛΑΚΑ,37.97646,23.73135
577,Sokol,42,ΚΕΡΑΜΕΙΚΟΣ,37.98004,23.7223
578,Ivy Vacation Rentals,21,ΚΟΥΚΑΚΙ-ΜΑΚΡΥΓΙΑΝΝΗ,37.9680813,23.7295612
579,Tèo,49,ΝΕΟΣ ΚΟΣΜΟΣ,37.963642,23.7269372
580,Venetia,3,ΚΟΥΚΑΚΙ-ΜΑΚΡΥΓΙΑΝΝΗ,37.9649585,23.7252049
581,Alexander,5,ΚΟΥΚΑΚΙ-ΜΑΚΡΥΓΙΑΝΝΗ,37.96468,23.72165
582,Alexandros,4,ΚΟΥΚΑΚΙ-ΜΑΚΡΥΓΙΑΝΝΗ,37.9664229,23.7256256
583,Nasos,41,ΚΟΥΚΑΚΙ-ΜΑΚΡΥΓΙΑΝΝΗ,37.9640178,23.7243044
584,YalaRent,9,ΕΜΠΟΡΙΚΟ ΤΡΙΓΩΝΟ-ΠΛΑΚΑ,37.97748804353655,23.730878340957283
585,Anhome,4,ΚΟΥΚΑΚΙ-ΜΑΚΡΥΓΙΑΝΝΗ,37.96314,23.72188
586,Ari,3,ΠΕΤΡΑΛΩΝΑ,37.9684654,23.7094003
587,George,57,ΕΜΠΟΡΙΚΟ ΤΡΙΓΩΝΟ-ΠΛΑΚΑ,37.97805,23.73188
588,Pygmalion,8,ΠΕΤΡΑΛΩΝΑ,37.97589239902515,23.712517357706272
589,George,57,ΕΜΠΟΡΙΚΟ ΤΡΙΓΩΝΟ-ΠΛΑΚΑ,37.97858,23.7302
590,D & Y Boutique Athens,50,ΚΕΡΑΜΕΙΚΟΣ,37.9800567,23.7235141
591,Maria,22,ΕΜΠΟΡΙΚΟ ΤΡΙΓΩΝΟ-ΠΛΑΚΑ,37.97536,23.72677
592,D & Y Boutique Athens,50,ΚΕΡΑΜΕΙΚΟΣ,37.9802,23.72357
593,D & Y Boutique Athens,50,ΚΕΡΑΜΕΙΚΟΣ,37.98006057739258,23.72355842590332
594,D & Y Boutique Athens,50,ΚΕΡΑΜΕΙΚΟΣ,37.9802,23.72357
595,Nasos,10,ΚΟΥΚΑΚΙ-ΜΑΚΡΥΓΙΑΝΝΗ,37.96265,23.72101
596,Georgina,6,ΕΜΠΟΡΙΚΟ ΤΡΙΓΩΝΟ-ΠΛΑΚΑ,37.9749,23.73239
597,Δημήτριος,3,ΕΜΠΟΡΙΚΟ ΤΡΙΓΩΝΟ-ΠΛΑΚΑ,37.9779,23.72537
598,Stylish Stays,8,ΚΟΥΚΑΚΙ-ΜΑΚΡΥΓΙΑΝΝΗ,37.96641,23.7259
599,Ira & Oleg,37,ΚΟΥΚΑΚΙ-ΜΑΚΡΥΓΙΑΝΝΗ,37.96743,23.72678
600,Viktor,7,ΚΟΥΚΑΚΙ-ΜΑΚΡΥΓΙΑΝΝΗ,37.96325,23.7222
601,Manos And Fay,13,ΝΕΟΣ ΚΟΣΜΟΣ,37.96293,23.73096
602,Κωνσταντινος,22,ΚΥΨΕΛΗ,38.0001366,23.7385285
603,YalaRent,9,ΕΜΠΟΡΙΚΟ ΤΡΙΓΩΝΟ-ΠΛΑΚΑ,37.97668664212453,23.73087940479309
604,Attikibnb,3,ΠΛΑΤΕΙΑ ΑΜΕΡΙΚΗΣ,38.007206,23.73196
605,Homer & Isabella,58,1Ο ΝΕΚΡΟΤΑΦΕΙΟ,37.961372,23.735786
606,Peter,4,ΑΓΙΟΣ ΚΩΝΣΤΑΝΤΙΝΟΣ-ΠΛΑΤΕΙΑ ΒΑΘΗΣ,37.98987810000001,23.7292057
607,Tolis,4,ΝΕΟΣ ΚΟΣΜΟΣ,37.95984,23.72373
608,Κωνσταντινος,22,ΠΛΑΤΕΙΑ ΑΤΤΙΚΗΣ,37.9951738,23.7281907
609,Thanos,9,ΚΟΥΚΑΚΙ-ΜΑΚΡΥΓΙΑΝΝΗ,37.9621776,23.7205911
610,Icaria,3,ΣΤΑΔΙΟ,37.969758060044256,23.74139660531165
611,Toni,47,ΜΟΥΣΕΙΟ-ΕΞΑΡΧΕΙΑ-ΝΕΑΠΟΛΗ,37.98897,23.72991
612,Tolis,4,ΝΕΟΣ ΚΟΣΜΟΣ,37.96006,23.72501
613,MyGreek,20,ΚΟΥΚΑΚΙ-ΜΑΚΡΥΓΙΑΝΝΗ,37.96246,23.71985
614,Homer & Isabella,58,ΚΟΥΚΑΚΙ-ΜΑΚΡΥΓΙΑΝΝΗ,37.9640493,23.7198493
615,Manolis,16,ΜΟΥΣΕΙΟ-ΕΞΑΡΧΕΙΑ-ΝΕΑΠΟΛΗ,37.9862752,23.7395289
616,Toni,47,ΜΟΥΣΕΙΟ-ΕΞΑΡΧΕΙΑ-ΝΕΑΠΟΛΗ,37.9882,23.72973
617,Nelly,11,ΑΓΙΟΣ ΚΩΝΣΤΑΝΤΙΝΟΣ-ΠΛΑΤΕΙΑ ΒΑΘΗΣ,37.98389,23.71996
618,Vassilis,3,1Ο ΝΕΚΡΟΤΑΦΕΙΟ,37.9659,23.73997
619,Toni,47,ΜΟΥΣΕΙΟ-ΕΞΑΡΧΕΙΑ-ΝΕΑΠΟΛΗ,37.98115,23.73625
620,Demetris,7,ΒΟΤΑΝΙΚΟΣ,37.97974,23.70749
621,Nikolaos,13,ΕΜΠΟΡΙΚΟ ΤΡΙΓΩΝΟ-ΠΛΑΚΑ,37.9826397,23.7325957
622,Matό,8,ΑΜΠΕΛΟΚΗΠΟΙ,37.9922626,23.7619115
623,Lucas,15,ΕΜΠΟΡΙΚΟ ΤΡΙΓΩΝΟ-ΠΛΑΚΑ,37.98532,23.72844
624,Nasos,15,ΛΥΚΑΒΗΤΤΟΣ,37.9804509,23.7445726
625,Dcn Zeus,3,ΖΑΠΠΕΙΟ,37.96671,23.73459
626,Home Story,14,ΑΓΙΟΣ ΚΩΝΣΤΑΝΤΙΝΟΣ-ΠΛΑΤΕΙΑ ΒΑΘΗΣ,37.98293360140089,23.723165388559423
627,Nikolaos,13,ΕΜΠΟΡΙΚΟ ΤΡΙΓΩΝΟ-ΠΛΑΚΑ,37.9826397,23.7325957
628,Panagiotis,20,ΣΤΑΘΜΟΣ ΛΑΡΙΣΗΣ,37.9874519,23.7205457
629,Konmar Development,3,ΠΛΑΤΕΙΑ ΑΜΕΡΙΚΗΣ,38.00305865178849,23.72678443641188
630,Christos,5,ΑΓΙΟΣ ΚΩΝΣΤΑΝΤΙΝΟΣ-ΠΛΑΤΕΙΑ ΒΑΘΗΣ,37.98366,23.71814
631,Connect Apartments & Suites,8,ΑΓΙΟΣ ΚΩΝΣΤΑΝΤΙΝΟΣ-ΠΛΑΤΕΙΑ ΒΑΘΗΣ,37.98549,23.72108
632,Matό,8,ΑΜΠΕΛΟΚΗΠΟΙ,37.98876569999999,23.7647471
633,Segal Group,19,ΕΜΠΟΡΙΚΟ ΤΡΙΓΩΝΟ-ΠΛΑΚΑ,37.97905589743549,23.737291369684687
634,Evan&Anetta,68,ΕΜΠΟΡΙΚΟ ΤΡΙΓΩΝΟ-ΠΛΑΚΑ,37.983406,23.729376
635,Kοnstantinos,11,ΑΓΙΟΣ ΚΩΝΣΤΑΝΤΙΝΟΣ-ΠΛΑΤΕΙΑ ΒΑΘΗΣ,37.98418,23.71712
636,Nir,4,ΕΜΠΟΡΙΚΟ ΤΡΙΓΩΝΟ-ΠΛΑΚΑ,37.97697,23.7263
637,Fire,4,ΑΓΙΟΣ ΚΩΝΣΤΑΝΤΙΝΟΣ-ΠΛΑΤΕΙΑ ΒΑΘΗΣ,37.984787,23.720015
638,Jj,16,ΕΜΠΟΡΙΚΟ ΤΡΙΓΩΝΟ-ΠΛΑΚΑ,37.97227023837474,23.731363341418536
639,Sokol,42,ΚΕΡΑΜΕΙΚΟΣ,37.98103,23.7234
640,Georgios,3,ΚΟΥΚΑΚΙ-ΜΑΚΡΥΓΙΑΝΝΗ,37.96504117834594,23.722306798693563
641,Toni,47,ΑΚΡΟΠΟΛΗ,37.96278,23.71876
642,Steven,3,ΕΜΠΟΡΙΚΟ ΤΡΙΓΩΝΟ-ΠΛΑΚΑ,37.972954,23.72636
643,Nasos,41,ΚΟΥΚΑΚΙ-ΜΑΚΡΥΓΙΑΝΝΗ,37.965992,23.72448
644,Evans,10,ΑΓΙΟΣ ΚΩΝΣΤΑΝΤΙΝΟΣ-ΠΛΑΤΕΙΑ ΒΑΘΗΣ,37.98357063629776,23.723606871529977
645,Konstantinos,4,ΚΟΥΚΑΚΙ-ΜΑΚΡΥΓΙΑΝΝΗ,37.96811,23.7311
646,Lucas,15,ΕΜΠΟΡΙΚΟ ΤΡΙΓΩΝΟ-ΠΛΑΚΑ,37.9728234,23.7302057
647,Lucas,15,ΕΜΠΟΡΙΚΟ ΤΡΙΓΩΝΟ-ΠΛΑΚΑ,37.98549,23.72957
648,Anhome,4,ΚΟΥΚΑΚΙ-ΜΑΚΡΥΓΙΑΝΝΗ,37.9640785,23.7234784
649,Anna & Efi,6,ΕΜΠΟΡΙΚΟ ΤΡΙΓΩΝΟ-ΠΛΑΚΑ,37.97656,23.7301
650,Homer & Isabella,58,ΚΟΥΚΑΚΙ-ΜΑΚΡΥΓΙΑΝΝΗ,37.9624387,23.7194232
651,Konstantinos,4,ΝΕΟΣ ΚΟΣΜΟΣ,37.9667626,23.7298381
652,Homer & Isabella,58,ΚΟΥΚΑΚΙ-ΜΑΚΡΥΓΙΑΝΝΗ,37.965745,23.7268903
653,George,57,ΕΜΠΟΡΙΚΟ ΤΡΙΓΩΝΟ-ΠΛΑΚΑ,37.97483012004968,23.72949541479396
654,MyGreekVacations,19,ΘΗΣΕΙΟ,37.97322,23.71397
655,Evagelos,8,ΖΑΠΠΕΙΟ,37.9677144,23.7327074
656,CloudKeys,35,ΑΚΡΟΠΟΛΗ,37.96329,23.71875
657,Hestia,3,ΚΟΥΚΑΚΙ-ΜΑΚΡΥΓΙΑΝΝΗ,37.9636288,23.7222265
658,Homer & Isabella,58,ΚΟΥΚΑΚΙ-ΜΑΚΡΥΓΙΑΝΝΗ,37.96286,23.72129
659,Αργυρώ,5,ΚΟΥΚΑΚΙ-ΜΑΚΡΥΓΙΑΝΝΗ,37.96514,23.72458
660,Konstantinos,10,ΕΜΠΟΡΙΚΟ ΤΡΙΓΩΝΟ-ΠΛΑΚΑ,37.97558,23.73161
661,Nomad'S,6,ΠΕΤΡΑΛΩΝΑ,37.976112,23.71336
662,Giannis,10,ΝΕΟΣ ΚΟΣΜΟΣ,37.96532,23.7318
663,Matό,8,ΑΜΠΕΛΟΚΗΠΟΙ,37.98876569999999,23.7647471
664,V² Development,27,ΑΓΙΟΣ ΚΩΝΣΤΑΝΤΙΝΟΣ-ΠΛΑΤΕΙΑ ΒΑΘΗΣ,37.984695,23.717899
665,Athina And/Or Eleni,23,ΛΥΚΑΒΗΤΤΟΣ,37.98046,23.74627
666,Keramos Athens,4,ΚΕΡΑΜΕΙΚΟΣ,37.9821,23.71466
667,Αριστειδης,33,ΠΑΓΚΡΑΤΙ,37.97021,23.74543
668,Akis & Marietta,3,ΓΚΥΖΗ,37.99072,23.7506
669,Tonia,5,ΠΑΤΗΣΙΑ,38.01202,23.73235
670,Evangelos,15,ΠΛΑΤΕΙΑ ΑΤΤΙΚΗΣ,37.99660105591083,23.728199156880777
671,Dropebnb,49,ΝΕΟΣ ΚΟΣΜΟΣ,37.9583454,23.7215128
672,Tonia,8,ΠΑΓΚΡΑΤΙ,37.97327,23.75006
673,Local Host,12,ΛΥΚΑΒΗΤΤΟΣ,37.98433193767886,23.742980183621302
674,V² Development,27,ΠΛΑΤΕΙΑ ΑΤΤΙΚΗΣ,37.9988736,23.7305206
675,Toni,47,ΜΟΥΣΕΙΟ-ΕΞΑΡΧΕΙΑ-ΝΕΑΠΟΛΗ,37.98814,23.72982
676,Homer & Isabella,58,ΣΤΑΔΙΟ,37.968304,23.742994
677,Stelios,22,ΚΟΛΩΝΟΣ,37.995379,23.7169184
678,Fire,4,ΚΥΨΕΛΗ,37.99641,23.73754
679,Home Story,14,ΠΛΑΤΕΙΑ ΑΤΤΙΚΗΣ,37.99177058932181,23.730365421097865
680,Maryland,56,ΒΟΤΑΝΙΚΟΣ,37.9799255,23.7102285
681,GK Properties,25,ΠΛΑΤΕΙΑ ΑΜΕΡΙΚΗΣ,38.0011896,23.7326514
682,V² Development,27,ΠΛΑΤΕΙΑ ΑΤΤΙΚΗΣ,37.99335,23.72829
683,Sotiris,4,ΓΟΥΔΙ,37.98294,23.76312
684,Jerry,9,ΠΕΔΙΟ ΑΡΕΩΣ,37.99603,23.73807
685,Alexandros,11,ΑΜΠΕΛΟΚΗΠΟΙ,37.98882,23.75769
686,Manolis,16,ΜΟΥΣΕΙΟ-ΕΞΑΡΧΕΙΑ-ΝΕΑΠΟΛΗ,37.98982959415671,23.739559418385337
687,Evan&Anetta,68,ΕΜΠΟΡΙΚΟ ΤΡΙΓΩΝΟ-ΠΛΑΚΑ,37.9857834,23.7296504
688,Dimitris,4,ΝΕΟΣ ΚΟΣΜΟΣ,37.95133,23.72362
689,Ventiri,4,ΙΛΙΣΙΑ,37.976367,23.751177
690,Vivienne And Antonis,3,ΚΟΥΚΑΚΙ-ΜΑΚΡΥΓΙΑΝΝΗ,37.96259775815281,23.723582966270435
691,Evan&Anetta,68,ΕΜΠΟΡΙΚΟ ΤΡΙΓΩΝΟ-ΠΛΑΚΑ,37.978648,23.7369024
692,Flavia,19,ΚΟΛΩΝΑΚΙ,37.97709,23.745
693,Harry,64,ΕΜΠΟΡΙΚΟ ΤΡΙΓΩΝΟ-ΠΛΑΚΑ,37.977956,23.7359789
694,Ouiliam,22,ΚΟΛΩΝΑΚΙ,37.9780303,23.7407143
695,Manos,9,ΕΜΠΟΡΙΚΟ ΤΡΙΓΩΝΟ-ΠΛΑΚΑ,37.97714,23.73034
696,Upstreet,121,ΠΑΓΚΡΑΤΙ,37.96984,23.74337
697,Ioanna,6,ΕΜΠΟΡΙΚΟ ΤΡΙΓΩΝΟ-ΠΛΑΚΑ,37.9774,23.72868
698,Andreas,6,ΕΜΠΟΡΙΚΟ ΤΡΙΓΩΝΟ-ΠΛΑΚΑ,37.98261,23.73377
699,Mgv,101,ΑΚΡΟΠΟΛΗ,37.96472,23.71739
700,Gianttrip,30,ΜΟΥΣΕΙΟ-ΕΞΑΡΧΕΙΑ-ΝΕΑΠΟΛΗ,37.98676,23.74016
701,Ioannis,8,ΠΛΑΤΕΙΑ ΑΜΕΡΙΚΗΣ,38.00212,23.72703
702,Δημήτριος,3,ΝΕΟΣ ΚΟΣΜΟΣ,37.96106,23.7279
703,Wayhome,13,ΠΑΓΚΡΑΤΙ,37.9700863842247,23.744522063039295
704,Konstantinos,5,ΕΜΠΟΡΙΚΟ ΤΡΙΓΩΝΟ-ΠΛΑΚΑ,37.98548,23.72518
705,Solonos,20,ΠΛΑΤΕΙΑ ΑΤΤΙΚΗΣ,37.99581437453035,23.72950313934116
706,Konstantinos,3,ΓΚΥΖΗ,37.99084940194162,23.7459412555396
707,Manos And Fay,13,ΝΕΟΣ ΚΟΣΜΟΣ,37.9620657,23.7288031
708,Pin Homes Nick,3,ΕΜΠΟΡΙΚΟ ΤΡΙΓΩΝΟ-ΠΛΑΚΑ,37.97715,23.7308
709,Athens,10,ΚΟΛΩΝΑΚΙ,37.97822189331055,23.74025535583496
710,Icaria,3,ΣΤΑΔΙΟ,37.96980144332882,23.74157387977779
711,Sokol,42,ΚΕΡΑΜΕΙΚΟΣ,37.98161,23.72261
712,Yana,4,ΚΟΥΚΑΚΙ-ΜΑΚΡΥΓΙΑΝΝΗ,37.96397,23.71963
713,Konstantinos,10,ΕΜΠΟΡΙΚΟ ΤΡΙΓΩΝΟ-ΠΛΑΚΑ,37.97556,23.73166
714,Acropolis Suites And Tours,4,ΚΟΥΚΑΚΙ-ΜΑΚΡΥΓΙΑΝΝΗ,37.967915,23.729469
715,Georgina,6,ΕΜΠΟΡΙΚΟ ΤΡΙΓΩΝΟ-ΠΛΑΚΑ,37.97636,23.73297
716,Harry,64,ΕΜΠΟΡΙΚΟ ΤΡΙΓΩΝΟ-ΠΛΑΚΑ,37.974686,23.732927
717,Aris,6,ΕΜΠΟΡΙΚΟ ΤΡΙΓΩΝΟ-ΠΛΑΚΑ,37.97375,23.73211
718,Upstreet,121,ΛΥΚΑΒΗΤΤΟΣ,37.98132,23.74631
719,Ioanna,6,ΕΜΠΟΡΙΚΟ ΤΡΙΓΩΝΟ-ΠΛΑΚΑ,37.97731,23.7267
720,Heritage,22,ΕΜΠΟΡΙΚΟ ΤΡΙΓΩΝΟ-ΠΛΑΚΑ,37.97858,23.72974
721,Amalia,3,ΑΚΡΟΠΟΛΗ,37.971561,23.72998
722,Klepsydra,14,ΕΜΠΟΡΙΚΟ ΤΡΙΓΩΝΟ-ΠΛΑΚΑ,37.97886,23.73063
723,Dimitris,3,ΕΜΠΟΡΙΚΟ ΤΡΙΓΩΝΟ-ΠΛΑΚΑ,37.9714642,23.7311855
724,Aris,6,ΕΜΠΟΡΙΚΟ ΤΡΙΓΩΝΟ-ΠΛΑΚΑ,37.9745446717117,23.731295454241256
725,Jj,16,ΕΜΠΟΡΙΚΟ ΤΡΙΓΩΝΟ-ΠΛΑΚΑ,37.97223,23.73159
726,D & Y Boutique Athens,50,ΚΕΡΑΜΕΙΚΟΣ,37.98006,23.72356
727,Shaked,3,ΕΜΠΟΡΙΚΟ ΤΡΙΓΩΝΟ-ΠΛΑΚΑ,37.97411551898128,23.731642788791227
728,TopHouzzing Properties,41,ΑΚΡΟΠΟΛΗ,37.96829,23.72411
729,Antonis,4,ΠΕΔΙΟ ΑΡΕΩΣ,37.995068,23.73226
730,Mgv,101,ΑΚΡΟΠΟΛΗ,37.96205,23.71777
731,Konstantinos,4,ΠΕΔΙΟ ΑΡΕΩΣ,37.9960536,23.7338057
732,Dipsons,7,ΓΚΑΖΙ,37.97845,23.71075
733,Dimitris,7,ΓΚΑΖΙ,37.97702,23.71062
734,Vasiliki,5,ΑΚΡΟΠΟΛΗ,37.96996,23.7153
735,LUXandEASY,15,ΠΑΤΗΣΙΑ,38.01345,23.72977
736,Athina And/Or Eleni,23,ΚΟΛΩΝΑΚΙ,37.978382,23.745245
737,Marios,8,ΕΜΠΟΡΙΚΟ ΤΡΙΓΩΝΟ-ΠΛΑΚΑ,37.97076,23.730583
738,Upstreet,121,ΛΥΚΑΒΗΤΤΟΣ,37.98528,23.74678
739,Maria & Prokopis,5,ΚΕΡΑΜΕΙΚΟΣ,37.97964477539063,23.72140312194824
740,Dropebnb,49,ΜΟΥΣΕΙΟ-ΕΞΑΡΧΕΙΑ-ΝΕΑΠΟΛΗ,37.9849676,23.7375067
741,MyGreekVacations,19,ΘΗΣΕΙΟ,37.97514,23.71405
742,MyGreekVacations,19,ΘΗΣΕΙΟ,37.97538,23.71357
743,Jj,16,ΖΑΠΠΕΙΟ,37.97207,23.73325
744,Evan&Anetta,68,ΕΜΠΟΡΙΚΟ ΤΡΙΓΩΝΟ-ΠΛΑΚΑ,37.979359,23.72477
745,David,12,ΚΟΥΚΑΚΙ-ΜΑΚΡΥΓΙΑΝΝΗ,37.96884819663612,23.73038038669613
746,Sotiris,4,ΚΟΥΚΑΚΙ-ΜΑΚΡΥΓΙΑΝΝΗ,37.96429,23.7257
747,Elysium,5,ΓΟΥΔΙ,37.9803,23.75905
748,Liroy,35,ΚΟΥΚΑΚΙ-ΜΑΚΡΥΓΙΑΝΝΗ,37.96512,23.72635
749,Alexandros,5,ΖΑΠΠΕΙΟ,37.966915130615234,23.733598709106445
750,Evan&Anetta,68,ΕΜΠΟΡΙΚΟ ΤΡΙΓΩΝΟ-ΠΛΑΚΑ,37.979359,23.72477
751,Upstreet,121,ΑΜΠΕΛΟΚΗΠΟΙ,37.98348,23.75684
752,Constantina,8,ΑΓΙΟΣ ΚΩΝΣΤΑΝΤΙΝΟΣ-ΠΛΑΤΕΙΑ ΒΑΘΗΣ,37.98248,23.71784
753,Vassiliki Giannakopoulou,3,ΕΜΠΟΡΙΚΟ ΤΡΙΓΩΝΟ-ΠΛΑΚΑ,37.97606055900776,23.730844259262085
754,Nasos,41,ΚΟΥΚΑΚΙ-ΜΑΚΡΥΓΙΑΝΝΗ,37.9663521,23.7278217
755,Heritage,22,ΕΜΠΟΡΙΚΟ ΤΡΙΓΩΝΟ-ΠΛΑΚΑ,37.97655,23.72937
756,Joelle,14,ΠΑΓΚΡΑΤΙ,37.97002151627551,23.74803858788428
757,Manos And Fay,13,ΝΕΟΣ ΚΟΣΜΟΣ,37.96296,23.7299
758,Manos And Fay,13,ΝΕΟΣ ΚΟΣΜΟΣ,37.96298,23.72979
759,Heritage,22,ΕΜΠΟΡΙΚΟ ΤΡΙΓΩΝΟ-ΠΛΑΚΑ,37.97637,23.73078
760,MyGreek,20,ΚΟΥΚΑΚΙ-ΜΑΚΡΥΓΙΑΝΝΗ,37.96154,23.721
761,Vasileios,3,ΝΕΟΣ ΚΟΣΜΟΣ,37.96334,23.73376
762,Dropebnb,49,ΜΟΥΣΕΙΟ-ΕΞΑΡΧΕΙΑ-ΝΕΑΠΟΛΗ,37.9849676,23.7375067
763,Klepsydra,14,ΕΜΠΟΡΙΚΟ ΤΡΙΓΩΝΟ-ΠΛΑΚΑ,37.98018,23.72894
764,Theodoros,12,ΚΟΥΚΑΚΙ-ΜΑΚΡΥΓΙΑΝΝΗ,37.96395,23.72506
765,Greecing,17,ΚΟΥΚΑΚΙ-ΜΑΚΡΥΓΙΑΝΝΗ,37.9657595,23.723776
766,David,12,ΚΟΥΚΑΚΙ-ΜΑΚΡΥΓΙΑΝΝΗ,37.968233765912586,23.73027073575265
767,Panagiotis,20,ΕΜΠΟΡΙΚΟ ΤΡΙΓΩΝΟ-ΠΛΑΚΑ,37.9782427,23.7284144
768,Panagiotis,8,ΑΚΡΟΠΟΛΗ,37.9694,23.7238
769,Κωνσταντινος,22,ΠΑΓΚΡΑΤΙ,37.97003173828125,23.74540328979492
770,Konstantinos,10,ΕΜΠΟΡΙΚΟ ΤΡΙΓΩΝΟ-ΠΛΑΚΑ,37.97745,23.72908
771,Κωνσταντινος,22,ΠΑΓΚΡΑΤΙ,37.9678,23.74623
772,Vassiliki Giannakopoulou,3,ΕΜΠΟΡΙΚΟ ΤΡΙΓΩΝΟ-ΠΛΑΚΑ,37.9760698087285,23.73083889484405
773,Heartlock,8,ΑΚΡΟΠΟΛΗ,37.96908897400598,23.725997266270436
774,Homer & Isabella,58,ΚΟΥΚΑΚΙ-ΜΑΚΡΥΓΙΑΝΝΗ,37.9658078,23.723793
775,Alexandros,11,ΚΥΨΕΛΗ,37.99979,23.73685
776,Maria & Prokopis,5,ΚΕΡΑΜΕΙΚΟΣ,37.97964477539063,23.72140312194824
777,MyGreekVacations,19,ΘΗΣΕΙΟ,37.97369,23.71251
778,Heritage,22,ΕΜΠΟΡΙΚΟ ΤΡΙΓΩΝΟ-ΠΛΑΚΑ,37.97671,23.7309
779,Marita & George,3,ΑΚΡΟΠΟΛΗ,37.96771,23.72431
780,George,6,ΕΜΠΟΡΙΚΟ ΤΡΙΓΩΝΟ-ΠΛΑΚΑ,37.9775557,23.7266288
781,Theodoros,12,ΚΟΥΚΑΚΙ-ΜΑΚΡΥΓΙΑΝΝΗ,37.96489,23.72411
782,Leonidas,22,ΚΟΥΚΑΚΙ-ΜΑΚΡΥΓΙΑΝΝΗ,37.96474,23.72427
783,ΜΙΧΟΣ Μονοπροσωπη Ικε,17,ΑΚΡΟΠΟΛΗ,37.96815,23.72872
784,Greecing,17,ΚΟΥΚΑΚΙ-ΜΑΚΡΥΓΙΑΝΝΗ,37.9682869,23.7268772
785,Nasos,15,ΚΟΛΩΝΑΚΙ,37.9803968,23.7369489
786,Nasos,15,ΠΑΓΚΡΑΤΙ,37.9696935,23.7442513
787,Bill & John,30,ΝΕΟΣ ΚΟΣΜΟΣ,37.96625681665554,23.72910769869382
788,MyGreekVacations,19,ΘΗΣΕΙΟ,37.97652,23.71901
789,Solonos,20,ΑΓΙΟΣ ΚΩΝΣΤΑΝΤΙΝΟΣ-ΠΛΑΤΕΙΑ ΒΑΘΗΣ,37.99029922485352,23.72261619567871
790,Dimitris,5,ΠΛΑΤΕΙΑ ΑΤΤΙΚΗΣ,38.0026839,23.7232185
791,Athina And/Or Eleni,23,ΚΟΛΩΝΑΚΙ,37.9772,23.74556
792,Ioannis,8,ΠΛΑΤΕΙΑ ΑΜΕΡΙΚΗΣ,38.00231,23.72769
793,Segal Group,19,ΕΜΠΟΡΙΚΟ ΤΡΙΓΩΝΟ-ΠΛΑΚΑ,37.97948525641584,23.73676029848813
794,Your.Rentals,5,ΑΓΙΟΣ ΚΩΝΣΤΑΝΤΙΝΟΣ-ΠΛΑΤΕΙΑ ΒΑΘΗΣ,37.9915897,23.7270704
795,Liv,9,ΜΟΥΣΕΙΟ-ΕΞΑΡΧΕΙΑ-ΝΕΑΠΟΛΗ,37.9868998,23.7463205
796,Ipelhome,6,ΕΜΠΟΡΙΚΟ ΤΡΙΓΩΝΟ-ΠΛΑΚΑ,37.97587242593049,23.72355655767213
797,Antonia,12,ΕΜΠΟΡΙΚΟ ΤΡΙΓΩΝΟ-ΠΛΑΚΑ,37.97454,23.7272
798,YalaRent,9,ΕΜΠΟΡΙΚΟ ΤΡΙΓΩΝΟ-ΠΛΑΚΑ,37.97730813961154,23.73098725394869
799,Pakis,3,ΕΜΠΟΡΙΚΟ ΤΡΙΓΩΝΟ-ΠΛΑΚΑ,37.9763,23.73299
800,Stelios,22,ΕΜΠΟΡΙΚΟ ΤΡΙΓΩΝΟ-ΠΛΑΚΑ,37.982021053227335,23.72378687213027
801,Eleni,23,ΕΜΠΟΡΙΚΟ ΤΡΙΓΩΝΟ-ΠΛΑΚΑ,37.9756262,23.7306121
802,Niko And Andrea,13,ΕΜΠΟΡΙΚΟ ΤΡΙΓΩΝΟ-ΠΛΑΚΑ,37.976405,23.7305377
803,Only ElPilar,10,ΜΟΥΣΕΙΟ-ΕΞΑΡΧΕΙΑ-ΝΕΑΠΟΛΗ,37.9849061,23.7335535
804,Antonis,14,ΕΜΠΟΡΙΚΟ ΤΡΙΓΩΝΟ-ΠΛΑΚΑ,37.97550006544368,23.734192488612432
805,YalaRent,9,ΕΜΠΟΡΙΚΟ ΤΡΙΓΩΝΟ-ΠΛΑΚΑ,37.97884905397726,23.731379866078797
806,Homer & Isabella,58,ΚΟΥΚΑΚΙ-ΜΑΚΡΥΓΙΑΝΝΗ,37.963673,23.721329
807,Nasos,41,ΚΟΥΚΑΚΙ-ΜΑΚΡΥΓΙΑΝΝΗ,37.9638669,23.7244518
808,Nasos,10,ΚΟΥΚΑΚΙ-ΜΑΚΡΥΓΙΑΝΝΗ,37.96823,23.73069
809,Sokol,42,ΚΕΡΑΜΕΙΚΟΣ,37.98108,23.7234
810,Konstantinos,3,ΑΓΙΟΣ ΚΩΝΣΤΑΝΤΙΝΟΣ-ΠΛΑΤΕΙΑ ΒΑΘΗΣ,37.98287,23.72215
811,Evelyn,20,ΕΜΠΟΡΙΚΟ ΤΡΙΓΩΝΟ-ΠΛΑΚΑ,37.9768634,23.7291254
812,Giota,4,ΑΚΡΟΠΟΛΗ,37.96956,23.72497
813,Homer & Isabella,58,ΚΟΥΚΑΚΙ-ΜΑΚΡΥΓΙΑΝΝΗ,37.965466,23.725124
814,Harry,64,ΕΜΠΟΡΙΚΟ ΤΡΙΓΩΝΟ-ΠΛΑΚΑ,37.97586,23.73319
815,Heritage,22,ΕΜΠΟΡΙΚΟ ΤΡΙΓΩΝΟ-ΠΛΑΚΑ,37.97638,23.72982
816,Evelyn,20,ΕΜΠΟΡΙΚΟ ΤΡΙΓΩΝΟ-ΠΛΑΚΑ,37.97688031420767,23.72893228095093
817,Greece You Around,7,ΠΕΤΡΑΛΩΝΑ,37.97348,23.71524
818,Ipelhome,6,ΕΜΠΟΡΙΚΟ ΤΡΙΓΩΝΟ-ΠΛΑΚΑ,37.971527099609375,23.73163414001465
819,Greece You Around,7,ΠΕΤΡΑΛΩΝΑ,37.97318,23.71375
820,Konstantinos,10,ΕΜΠΟΡΙΚΟ ΤΡΙΓΩΝΟ-ΠΛΑΚΑ,37.97558,23.73161
821,Dropebnb,49,ΜΟΥΣΕΙΟ-ΕΞΑΡΧΕΙΑ-ΝΕΑΠΟΛΗ,37.9849676,23.7375067
822,Dimitris,3,ΚΟΛΩΝΑΚΙ,37.97844,23.75203
823,Theodoros,12,ΚΟΥΚΑΚΙ-ΜΑΚΡΥΓΙΑΝΝΗ,37.96395,23.72506
824,Theodoros,12,ΚΟΥΚΑΚΙ-ΜΑΚΡΥΓΙΑΝΝΗ,37.96315,23.72411
825,TopHouzzing Properties,41,ΑΚΡΟΠΟΛΗ,37.97088,23.72961
826,Michael,3,ΠΛΑΤΕΙΑ ΑΤΤΙΚΗΣ,37.9975067,23.7299571
827,Mariliza,4,ΕΜΠΟΡΙΚΟ ΤΡΙΓΩΝΟ-ΠΛΑΚΑ,37.973995648731474,23.731581785585966
828,Homer & Isabella,58,ΚΟΥΚΑΚΙ-ΜΑΚΡΥΓΙΑΝΝΗ,37.9658078,23.723793
829,Antonis,4,ΘΗΣΕΙΟ,37.97597,23.715
830,Dinos,5,ΚΟΥΚΑΚΙ-ΜΑΚΡΥΓΙΑΝΝΗ,37.96405202210671,23.72227692604067
831,George,57,ΕΜΠΟΡΙΚΟ ΤΡΙΓΩΝΟ-ΠΛΑΚΑ,37.97358,23.72929
832,Iasonas,3,ΠΕΤΡΑΛΩΝΑ,37.97185,23.71436
833,D & Y Boutique Athens,50,ΚΕΡΑΜΕΙΚΟΣ,37.9800567,23.7235141
834,Ioanna,6,ΕΜΠΟΡΙΚΟ ΤΡΙΓΩΝΟ-ΠΛΑΚΑ,37.97934,23.72728
835,Ari,3,ΑΓΙΟΣ ΚΩΝΣΤΑΝΤΙΝΟΣ-ΠΛΑΤΕΙΑ ΒΑΘΗΣ,37.981548,23.7214686
836,Amalia,3,ΑΚΡΟΠΟΛΗ,37.971561,23.72998
837,Roubina,20,ΕΜΠΟΡΙΚΟ ΤΡΙΓΩΝΟ-ΠΛΑΚΑ,37.97021,23.73078
838,Keramos Athens,4,ΚΕΡΑΜΕΙΚΟΣ,37.9821,23.71466
839,George,6,ΕΜΠΟΡΙΚΟ ΤΡΙΓΩΝΟ-ΠΛΑΚΑ,37.9775557,23.7266288
840,Hermes,10,ΕΜΠΟΡΙΚΟ ΤΡΙΓΩΝΟ-ΠΛΑΚΑ,37.97468,23.73184
841,Dimitris,3,ΕΜΠΟΡΙΚΟ ΤΡΙΓΩΝΟ-ΠΛΑΚΑ,37.9714642,23.7311855
842,MyGreek,20,ΙΛΙΣΙΑ,37.97962,23.75637
843,Eleni,3,1Ο ΝΕΚΡΟΤΑΦΕΙΟ,37.961372,23.735786
844,V² Development,27,ΑΓΙΟΣ ΚΩΝΣΤΑΝΤΙΝΟΣ-ΠΛΑΤΕΙΑ ΒΑΘΗΣ,37.98398,23.71697
845,Christos,5,ΑΓΙΟΣ ΚΩΝΣΤΑΝΤΙΝΟΣ-ΠΛΑΤΕΙΑ ΒΑΘΗΣ,37.98545,23.71708
846,Athens,10,ΚΟΛΩΝΑΚΙ,37.97822189331055,23.74025535583496
847,Heritage,22,ΕΜΠΟΡΙΚΟ ΤΡΙΓΩΝΟ-ΠΛΑΚΑ,37.97715,23.73135
848,Chryssa,9,ΣΤΑΔΙΟ,37.96723,23.73885
849,Evan&Anetta,68,ΕΜΠΟΡΙΚΟ ΤΡΙΓΩΝΟ-ΠΛΑΚΑ,37.97681,23.72748
850,George,57,ΕΜΠΟΡΙΚΟ ΤΡΙΓΩΝΟ-ΠΛΑΚΑ,37.97737,23.73011
851,Gabriel,3,ΕΜΠΟΡΙΚΟ ΤΡΙΓΩΝΟ-ΠΛΑΚΑ,37.9847297668457,23.73078346252441
852,Manos,9,ΕΜΠΟΡΙΚΟ ΤΡΙΓΩΝΟ-ΠΛΑΚΑ,37.9782531,23.7294529
853,Sofi,7,ΕΜΠΟΡΙΚΟ ΤΡΙΓΩΝΟ-ΠΛΑΚΑ,37.97897,23.72903
854,Emmanouil,7,ΑΜΠΕΛΟΚΗΠΟΙ,37.98903,23.76448
855,Homer & Isabella,58,ΚΟΥΚΑΚΙ-ΜΑΚΡΥΓΙΑΝΝΗ,37.96757059999999,23.7275353
856,Diamond,18,ΕΜΠΟΡΙΚΟ ΤΡΙΓΩΝΟ-ΠΛΑΚΑ,37.9738,23.73409
857,Alexander,5,ΚΟΥΚΑΚΙ-ΜΑΚΡΥΓΙΑΝΝΗ,37.96468,23.72165
858,YalaRent,9,ΕΜΠΟΡΙΚΟ ΤΡΙΓΩΝΟ-ΠΛΑΚΑ,37.97699,23.73111
859,Jj,16,ΕΜΠΟΡΙΚΟ ΤΡΙΓΩΝΟ-ΠΛΑΚΑ,37.97477,23.73045
860,YalaRent,9,ΕΜΠΟΡΙΚΟ ΤΡΙΓΩΝΟ-ΠΛΑΚΑ,37.978768036754495,23.732870929054883
861,NOHO Boutique,19,ΚΟΥΚΑΚΙ-ΜΑΚΡΥΓΙΑΝΝΗ,37.96502,23.72361
862,Leonidas,22,ΚΟΥΚΑΚΙ-ΜΑΚΡΥΓΙΑΝΝΗ,37.9647,23.72194
863,Yana,4,ΚΟΥΚΑΚΙ-ΜΑΚΡΥΓΙΑΝΝΗ,37.96564,23.72635
864,TopHouzzing Properties,41,ΝΕΟΣ ΚΟΣΜΟΣ,37.96506,23.73072
865,D & Y Boutique Athens,50,ΚΕΡΑΜΕΙΚΟΣ,37.97924041748047,23.72252655029297
866,George,12,ΑΜΠΕΛΟΚΗΠΟΙ,37.98392,23.75309
867,D & Y Boutique Athens,50,ΚΕΡΑΜΕΙΚΟΣ,37.98009,23.7233
868,Antonis,14,ΕΜΠΟΡΙΚΟ ΤΡΙΓΩΝΟ-ΠΛΑΚΑ,37.97748829791908,23.72469420517697
869,Nir,4,ΘΗΣΕΙΟ,37.9741167,23.7137208
870,Gianttrip,30,ΝΕΟΣ ΚΟΣΜΟΣ,37.9647605,23.7282805
871,Upstreet,121,ΚΟΛΩΝΑΚΙ,37.97841,23.74599
872,George,57,ΕΜΠΟΡΙΚΟ ΤΡΙΓΩΝΟ-ΠΛΑΚΑ,37.97316,23.73233
873,Hermes,10,ΖΑΠΠΕΙΟ,37.96713,23.73395
874,D & Y Boutique Athens,50,ΚΕΡΑΜΕΙΚΟΣ,37.97968,23.72325
875,Theo,3,ΘΗΣΕΙΟ,37.97772,23.72183
876,Tonia,8,ΚΟΛΩΝΑΚΙ,37.97751,23.74486
877,D & Y Boutique Athens,50,ΚΕΡΑΜΕΙΚΟΣ,37.98002243041992,23.72298622131348
878,Ioannis,6,ΠΕΤΡΑΛΩΝΑ,37.9694,23.71141
879,MyGreekVacations,19,ΘΗΣΕΙΟ,37.97547,23.71405
880,Upstreet,121,ΛΥΚΑΒΗΤΤΟΣ,37.98639,23.7474
881,George,57,ΕΜΠΟΡΙΚΟ ΤΡΙΓΩΝΟ-ΠΛΑΚΑ,37.97916,23.72477
882,MyGreekVacations,19,ΘΗΣΕΙΟ,37.97544,23.71362
883,Romanos,20,ΚΟΥΚΑΚΙ-ΜΑΚΡΥΓΙΑΝΝΗ,37.96611,23.726086
884,Ethereal,10,ΕΜΠΟΡΙΚΟ ΤΡΙΓΩΝΟ-ΠΛΑΚΑ,37.9759756,23.7321331
885,Ethereal,10,ΕΜΠΟΡΙΚΟ ΤΡΙΓΩΝΟ-ΠΛΑΚΑ,37.9759756,23.7321331
886,MyGreekVacations,19,ΘΗΣΕΙΟ,37.97542,23.71359
887,D & Y Boutique Athens,50,ΚΕΡΑΜΕΙΚΟΣ,37.97999,23.7236
888,Evan&Anetta,68,ΕΜΠΟΡΙΚΟ ΤΡΙΓΩΝΟ-ΠΛΑΚΑ,37.97781,23.72427
889,Housefull,3,ΑΚΡΟΠΟΛΗ,37.96713,23.72469
890,Alexandros,5,ΖΑΠΠΕΙΟ,37.966915130615234,23.733598709106445
891,Maria,22,ΕΜΠΟΡΙΚΟ ΤΡΙΓΩΝΟ-ΠΛΑΚΑ,37.973312,23.731026
892,Marios,8,ΕΜΠΟΡΙΚΟ ΤΡΙΓΩΝΟ-ΠΛΑΚΑ,37.97076,23.730583
893,Marios,8,ΕΜΠΟΡΙΚΟ ΤΡΙΓΩΝΟ-ΠΛΑΚΑ,37.97076,23.730583
894,Mariliza,4,ΕΜΠΟΡΙΚΟ ΤΡΙΓΩΝΟ-ΠΛΑΚΑ,37.97153,23.73195
895,VKbnb,11,ΠΑΓΚΡΑΤΙ,37.96452645622229,23.74710055026245
896,WeHost Athens,11,ΚΟΥΚΑΚΙ-ΜΑΚΡΥΓΙΑΝΝΗ,37.9651334,23.7271401
897,Panos,6,ΝΕΟΣ ΚΟΣΜΟΣ,37.9528,23.7208
898,Dimitrios,4,ΕΜΠΟΡΙΚΟ ΤΡΙΓΩΝΟ-ΠΛΑΚΑ,37.9800009,23.7266176
899,Hermes,10,ΕΜΠΟΡΙΚΟ ΤΡΙΓΩΝΟ-ΠΛΑΚΑ,37.97283,23.73057
900,Christos,3,ΕΜΠΟΡΙΚΟ ΤΡΙΓΩΝΟ-ΠΛΑΚΑ,37.97744230000001,23.7253271
901,Evelyn,20,ΕΜΠΟΡΙΚΟ ΤΡΙΓΩΝΟ-ΠΛΑΚΑ,37.9768634,23.7291254
902,D & Y Boutique Athens,50,ΚΕΡΑΜΕΙΚΟΣ,37.98005,23.72356
903,Christos,3,ΕΜΠΟΡΙΚΟ ΤΡΙΓΩΝΟ-ΠΛΑΚΑ,37.97744230000001,23.7253271
904,Manos,9,ΕΜΠΟΡΙΚΟ ΤΡΙΓΩΝΟ-ΠΛΑΚΑ,37.97825,23.72928
905,Lucas,15,ΕΜΠΟΡΙΚΟ ΤΡΙΓΩΝΟ-ΠΛΑΚΑ,37.97755,23.72836
906,D & Y Boutique Athens,50,ΚΕΡΑΜΕΙΚΟΣ,37.9802,23.72357
907,Claire,3,ΕΜΠΟΡΙΚΟ ΤΡΙΓΩΝΟ-ΠΛΑΚΑ,37.97855,23.72352
908,Amelie,32,ΕΜΠΟΡΙΚΟ ΤΡΙΓΩΝΟ-ΠΛΑΚΑ,37.97841,23.72679
909,Antonia,12,ΕΜΠΟΡΙΚΟ ΤΡΙΓΩΝΟ-ΠΛΑΚΑ,37.9738505,23.7328724
910,HAUSolutions,20,ΝΕΟΣ ΚΟΣΜΟΣ,37.9642621805056,23.72666906072715
911,Amelie,32,ΕΜΠΟΡΙΚΟ ΤΡΙΓΩΝΟ-ΠΛΑΚΑ,37.97882,23.72809
912,Spyros,28,ΠΕΔΙΟ ΑΡΕΩΣ,37.99622,23.74053
913,Emmanouil,7,ΑΜΠΕΛΟΚΗΠΟΙ,37.98863,23.76527
914,Nina,18,ΑΓΙΟΣ ΕΛΕΥΘΕΡΙΟΣ,38.0212295,23.7320985
915,Evan&Anetta,68,ΕΜΠΟΡΙΚΟ ΤΡΙΓΩΝΟ-ΠΛΑΚΑ,37.9857834,23.7296504
916,Ivy Vacation Rentals,21,ΚΕΡΑΜΕΙΚΟΣ,37.98284530639648,23.717235565185547
917,Stratos,6,ΚΕΡΑΜΕΙΚΟΣ,37.9794,23.71669
918,V² Development,27,ΑΓΙΟΣ ΚΩΝΣΤΑΝΤΙΝΟΣ-ΠΛΑΤΕΙΑ ΒΑΘΗΣ,37.9876,23.71936
919,Konstantinos,3,ΑΓΙΟΣ ΚΩΝΣΤΑΝΤΙΝΟΣ-ΠΛΑΤΕΙΑ ΒΑΘΗΣ,37.98302439312025,23.72039559797469
920,Liroy,35,ΚΟΥΚΑΚΙ-ΜΑΚΡΥΓΙΑΝΝΗ,37.96439635815656,23.72374786650071
921,Olga & Sarantis,3,ΝΕΟΣ ΚΟΣΜΟΣ,37.96246,23.73323
922,City,3,ΕΜΠΟΡΙΚΟ ΤΡΙΓΩΝΟ-ΠΛΑΚΑ,37.9859321,23.7289531
923,Θεόδωρος,4,ΠΛΑΤΕΙΑ ΑΤΤΙΚΗΣ,37.99312632307889,23.7248426243694
924,Nikolaos,13,ΕΜΠΟΡΙΚΟ ΤΡΙΓΩΝΟ-ΠΛΑΚΑ,37.9826397,23.7325957
925,V² Development,27,ΑΓΙΟΣ ΚΩΝΣΤΑΝΤΙΝΟΣ-ΠΛΑΤΕΙΑ ΒΑΘΗΣ,37.984882,23.71797
926,Fire,4,ΝΕΑ ΚΥΨΕΛΗ,37.9972,23.74428
927,Greg,5,ΙΛΙΣΙΑ,37.97464,23.74885
928,Φάνης,3,ΓΚΑΖΙ,37.97570282931633,23.710061126983646
929,Local Host,12,ΠΑΓΚΡΑΤΙ,37.97086,23.74825
930,Ιωάννης Άγγελος,18,ΑΓΙΟΣ ΚΩΝΣΤΑΝΤΙΝΟΣ-ΠΛΑΤΕΙΑ ΒΑΘΗΣ,37.9856,23.72084
931,Solonos,20,ΠΛΑΤΕΙΑ ΑΤΤΙΚΗΣ,37.9974,23.7312
932,Φάνης,3,ΓΚΑΖΙ,37.97496,23.70912
933,Martine,4,ΠΕΔΙΟ ΑΡΕΩΣ,37.99458,23.73912
934,V² Development,27,ΑΓΙΟΣ ΚΩΝΣΤΑΝΤΙΝΟΣ-ΠΛΑΤΕΙΑ ΒΑΘΗΣ,37.98373,23.7173
935,Upstreet,121,ΛΥΚΑΒΗΤΤΟΣ,37.98013,23.74289
936,Kostas,12,ΒΟΤΑΝΙΚΟΣ,37.97817,23.70866
937,Michael,3,ΚΥΨΕΛΗ,38.0018985,23.734019
938,Upstreet,121,ΚΟΛΩΝΑΚΙ,37.97905,23.73822
939,Natasha,10,ΝΕΟΣ ΚΟΣΜΟΣ,37.96247,23.72497
940,Emie,3,ΠΕΤΡΑΛΩΝΑ,37.96796,23.70921
941,George,3,ΚΟΛΩΝΑΚΙ,37.9775156,23.7458742
942,Chris,13,ΠΛΑΤΕΙΑ ΑΤΤΙΚΗΣ,37.99957,23.72485
943,Andreas,6,ΕΜΠΟΡΙΚΟ ΤΡΙΓΩΝΟ-ΠΛΑΚΑ,37.9777003,23.7311126
944,Μaria And Themis,6,ΝΕΟΣ ΚΟΣΜΟΣ,37.95474,23.71851
945,Upstreet,121,ΚΟΛΩΝΑΚΙ,37.97962,23.73795
946,Zack,9,ΛΥΚΑΒΗΤΤΟΣ,37.98376,23.74131
947,Jerry,9,ΠΕΔΙΟ ΑΡΕΩΣ,37.99571,23.73475
948,YalaRent,9,ΕΜΠΟΡΙΚΟ ΤΡΙΓΩΝΟ-ΠΛΑΚΑ,37.9775,23.73099
949,Athina And/Or Eleni,23,ΑΓΙΟΣ ΚΩΝΣΤΑΝΤΙΝΟΣ-ΠΛΑΤΕΙΑ ΒΑΘΗΣ,37.989,23.72778
950,Fire,4,ΑΓΙΟΣ ΚΩΝΣΤΑΝΤΙΝΟΣ-ΠΛΑΤΕΙΑ ΒΑΘΗΣ,37.984787,23.720015
951,Kostas,6,ΚΥΨΕΛΗ,37.99735,23.74007
952,Diamond,18,ΕΜΠΟΡΙΚΟ ΤΡΙΓΩΝΟ-ΠΛΑΚΑ,37.97719,23.7308931
953,Akis & Marietta,3,ΓΚΥΖΗ,37.98972,23.75056
954,Gtrip,15,ΚΕΡΑΜΕΙΚΟΣ,37.98196,23.71537
955,Upstreet,121,ΚΟΛΩΝΑΚΙ,37.97777554272962,23.74256442882361
956,Avigail,3,ΜΟΥΣΕΙΟ-ΕΞΑΡΧΕΙΑ-ΝΕΑΠΟΛΗ,37.98949,23.73262
957,Viktor,33,ΠΛΑΤΕΙΑ ΑΤΤΙΚΗΣ,37.9948643,23.7302391
958,Antonis,14,ΕΜΠΟΡΙΚΟ ΤΡΙΓΩΝΟ-ΠΛΑΚΑ,37.97495042982962,23.73222094085201
959,Nikolaos,13,ΕΜΠΟΡΙΚΟ ΤΡΙΓΩΝΟ-ΠΛΑΚΑ,37.9826397,23.7325957
960,Evelyn,20,ΕΜΠΟΡΙΚΟ ΤΡΙΓΩΝΟ-ΠΛΑΚΑ,37.97958,23.72583
961,Konstantinos,5,ΠΑΤΗΣΙΑ,38.01363,23.73573
962,LUXandEASY,15,ΠΑΤΗΣΙΑ,38.01287,23.73184
963,Travel Inn Greece,5,ΠΑΓΚΡΑΤΙ,37.96857295004829,23.750453214015504
964,Evi,3,ΝΕΟΣ ΚΟΣΜΟΣ,37.96198,23.72647
965,Athens Houses,19,ΑΚΑΔΗΜΙΑ ΠΛΑΤΩΝΟΣ,37.99745,23.7081
966,Viktor,33,ΠΛΑΤΕΙΑ ΑΤΤΙΚΗΣ,37.99644042938172,23.72827789649767
967,Liroy,35,ΚΟΥΚΑΚΙ-ΜΑΚΡΥΓΙΑΝΝΗ,37.9624,23.71953
968,Vivian,8,ΜΟΥΣΕΙΟ-ΕΞΑΡΧΕΙΑ-ΝΕΑΠΟΛΗ,37.98682,23.73138
969,Upstreet,121,ΠΑΓΚΡΑΤΙ,37.97266,23.74789
970,Only ElPilar,10,ΜΟΥΣΕΙΟ-ΕΞΑΡΧΕΙΑ-ΝΕΑΠΟΛΗ,37.9849061,23.7335535
971,Manos,9,ΕΜΠΟΡΙΚΟ ΤΡΙΓΩΝΟ-ΠΛΑΚΑ,37.97741,23.73042
972,Athina And/Or Eleni,23,ΛΥΚΑΒΗΤΤΟΣ,37.98047,23.74639
973,TravelStaytion,5,ΠΑΓΚΡΑΤΙ,37.97089872241607,23.74173068725747
974,Upstreet,121,ΛΥΚΑΒΗΤΤΟΣ,37.98087,23.74472
975,Nadja,8,ΜΟΥΣΕΙΟ-ΕΞΑΡΧΕΙΑ-ΝΕΑΠΟΛΗ,37.98555,23.73356
976,George,9,ΕΜΠΟΡΙΚΟ ΤΡΙΓΩΝΟ-ΠΛΑΚΑ,37.97869,23.72994
977,Phaedrus Living,34,ΕΜΠΟΡΙΚΟ ΤΡΙΓΩΝΟ-ΠΛΑΚΑ,37.98479,23.72521
978,Emmanuela,20,ΙΛΙΣΙΑ,37.9769,23.75513
979,Flavia,19,ΠΑΓΚΡΑΤΙ,37.97113314537527,23.7420769460752
980,Natasha,10,ΝΕΟΣ ΚΟΣΜΟΣ,37.958634284178174,23.72934037933136
981,Monkfish Trading MON IKE,26,ΑΚΡΟΠΟΛΗ,37.96442,23.71527
982,Μaria And Themis,6,ΝΕΟΣ ΚΟΣΜΟΣ,37.95495,23.72035
983,Nikolaos,13,ΕΜΠΟΡΙΚΟ ΤΡΙΓΩΝΟ-ΠΛΑΚΑ,37.9826397,23.7325957
984,Manos,9,ΕΜΠΟΡΙΚΟ ΤΡΙΓΩΝΟ-ΠΛΑΚΑ,37.98233,23.7257
985,Evan&Anetta,68,ΕΜΠΟΡΙΚΟ ΤΡΙΓΩΝΟ-ΠΛΑΚΑ,37.98365,23.72818
986,Konstantinos,12,ΘΗΣΕΙΟ,37.9761927,23.7148673
987,Evan&Anetta,68,ΖΑΠΠΕΙΟ,37.96667,23.73367
988,Georgios,3,ΣΕΠΟΛΙΑ,38.00961656019843,23.718847962969598
989,Heritage,22,ΕΜΠΟΡΙΚΟ ΤΡΙΓΩΝΟ-ΠΛΑΚΑ,37.97654,23.73101
990,Evan&Anetta,68,ΘΗΣΕΙΟ,37.9763702,23.7177031
991,Eleni & Athina,21,ΖΑΠΠΕΙΟ,37.96758,23.73166
992,Pin Homes Nick,3,ΕΜΠΟΡΙΚΟ ΤΡΙΓΩΝΟ-ΠΛΑΚΑ,37.977173,23.730824
993,Anna & Efi,6,ΕΜΠΟΡΙΚΟ ΤΡΙΓΩΝΟ-ΠΛΑΚΑ,37.97656,23.7301
994,Toni,47,ΜΟΥΣΕΙΟ-ΕΞΑΡΧΕΙΑ-ΝΕΑΠΟΛΗ,37.98893,23.7346
995,Evelyn,20,ΕΜΠΟΡΙΚΟ ΤΡΙΓΩΝΟ-ΠΛΑΚΑ,37.97711,23.72355
996,Spittaki,3,ΕΜΠΟΡΙΚΟ ΤΡΙΓΩΝΟ-ΠΛΑΚΑ,37.97733,23.72459
997,Evan&Anetta,68,ΕΜΠΟΡΙΚΟ ΤΡΙΓΩΝΟ-ΠΛΑΚΑ,37.979359,23.72477
998,George,57,ΕΜΠΟΡΙΚΟ ΤΡΙΓΩΝΟ-ΠΛΑΚΑ,37.97515,23.7283
999,La Residence Athens,4,ΙΛΙΣΙΑ,37.9761065,23.7537314
1000,Anna & Efi,6,ΕΜΠΟΡΙΚΟ ΤΡΙΓΩΝΟ-ΠΛΑΚΑ,37.97723,23.72615
1001,Dimitrios,4,ΕΜΠΟΡΙΚΟ ΤΡΙΓΩΝΟ-ΠΛΑΚΑ,37.980001,23.726618
1002,Pietro,5,ΓΟΥΔΙ,37.987686,23.767315
1003,Only ElPilar,10,ΜΟΥΣΕΙΟ-ΕΞΑΡΧΕΙΑ-ΝΕΑΠΟΛΗ,37.9849061,23.7335535
1004,Solonos,20,ΑΓΙΟΣ ΚΩΝΣΤΑΝΤΙΝΟΣ-ΠΛΑΤΕΙΑ ΒΑΘΗΣ,37.99039,23.72939
1005,Raise Team,42,ΕΛΛΗΝΟΡΩΣΩΝ,37.9991779,23.7715042
1006,Konstantinos,10,ΕΜΠΟΡΙΚΟ ΤΡΙΓΩΝΟ-ΠΛΑΚΑ,37.975601,23.731625
1007,Evan&Anetta,68,ΕΜΠΟΡΙΚΟ ΤΡΙΓΩΝΟ-ΠΛΑΚΑ,37.98351,23.73113
1008,Evans,10,ΑΓΙΟΣ ΚΩΝΣΤΑΝΤΙΝΟΣ-ΠΛΑΤΕΙΑ ΒΑΘΗΣ,37.98389088443188,23.72456600229108
1009,Kefi,4,ΝΕΟΣ ΚΟΣΜΟΣ,37.96624,23.73189
1010,Holidu,4,ΑΓΙΟΣ ΝΙΚΟΛΑΟΣ,38.0092871,23.7284431
1011,Mgv,101,ΑΚΡΟΠΟΛΗ,37.96405,23.7173
1012,V² Development,27,ΑΓΙΟΣ ΚΩΝΣΤΑΝΤΙΝΟΣ-ΠΛΑΤΕΙΑ ΒΑΘΗΣ,37.9918228,23.7218986
1013,Emmanouil,7,ΑΜΠΕΛΟΚΗΠΟΙ,37.98888,23.76473
1014,Αριστειδης,33,ΠΛΑΤΕΙΑ ΑΤΤΙΚΗΣ,37.99422,23.72345
1015,Yiannis,3,ΙΛΙΣΙΑ,37.97648,23.75433
1016,Georgia,4,ΙΛΙΣΙΑ,37.9729,23.75234
1017,Athina And/Or Eleni,23,ΚΟΛΩΝΑΚΙ,37.97857,23.7406
1018,Christos,7,ΚΕΡΑΜΕΙΚΟΣ,37.98044,23.71132
1019,Georgia,4,ΙΛΙΣΙΑ,37.97311,23.75193
1020,TopHouzzing Properties,41,ΝΕΟΣ ΚΟΣΜΟΣ,37.9625149,23.7247979
1021,Nik,10,ΑΜΠΕΛΟΚΗΠΟΙ,37.990339580021214,23.756593731500796
1022,Vivienne And Antonis,3,ΚΟΥΚΑΚΙ-ΜΑΚΡΥΓΙΑΝΝΗ,37.9625174,23.7235025
1023,Upstreet,121,ΠΑΓΚΡΑΤΙ,37.97107,23.744
1024,Avigail,3,ΜΟΥΣΕΙΟ-ΕΞΑΡΧΕΙΑ-ΝΕΑΠΟΛΗ,37.9871993,23.7420103
1025,Yaron,4,ΚΟΥΚΑΚΙ-ΜΑΚΡΥΓΙΑΝΝΗ,37.96194692354269,23.72122871534423
1026,Dinos,5,ΚΟΥΚΑΚΙ-ΜΑΚΡΥΓΙΑΝΝΗ,37.96249,23.72146
1027,Αριστειδης,33,ΠΛΑΤΕΙΑ ΑΤΤΙΚΗΣ,37.99897,23.725
1028,Spyros,7,ΝΕΟΣ ΚΟΣΜΟΣ,37.9626911,23.728033
1029,Solonos,20,ΠΛΑΤΕΙΑ ΑΤΤΙΚΗΣ,37.99169781701863,23.728898009170827
1030,Nelly,11,ΑΓΙΟΣ ΚΩΝΣΤΑΝΤΙΝΟΣ-ΠΛΑΤΕΙΑ ΒΑΘΗΣ,37.98411,23.71843
1031,Emmanouil,7,ΑΜΠΕΛΟΚΗΠΟΙ,37.98886,23.76467
1032,Connect Apartments & Suites,8,ΑΓΙΟΣ ΚΩΝΣΤΑΝΤΙΝΟΣ-ΠΛΑΤΕΙΑ ΒΑΘΗΣ,37.985771,23.719156
1033,Nick,5,ΚΟΛΩΝΑΚΙ,37.9795,23.74543
1034,City,3,ΕΜΠΟΡΙΚΟ ΤΡΙΓΩΝΟ-ΠΛΑΚΑ,37.9859321,23.7289531
1035,Elie,3,ΑΜΠΕΛΟΚΗΠΟΙ,37.9895489,23.7579817
1036,Nelly,11,ΑΓΙΟΣ ΚΩΝΣΤΑΝΤΙΝΟΣ-ΠΛΑΤΕΙΑ ΒΑΘΗΣ,37.98543,23.71835
1037,Konstantinos,5,ΠΑΤΗΣΙΑ,38.01311,23.73688
1038,Anna&Teo,6,ΑΜΠΕΛΟΚΗΠΟΙ,37.9928385,23.7641912
1039,Avi,3,ΜΟΥΣΕΙΟ-ΕΞΑΡΧΕΙΑ-ΝΕΑΠΟΛΗ,37.987904,23.740417
1040,Athens Panorama Project,8,ΠΕΔΙΟ ΑΡΕΩΣ,37.99601,23.74097
1041,Zoia,6,ΛΥΚΑΒΗΤΤΟΣ,37.98577,23.74449
1042,Vassilis,3,1Ο ΝΕΚΡΟΤΑΦΕΙΟ,37.96481420597543,23.740268473171703
1043,Ζωή,11,ΚΟΥΚΑΚΙ-ΜΑΚΡΥΓΙΑΝΝΗ,37.9664937,23.7283924
1044,Multipath,7,ΑΜΠΕΛΟΚΗΠΟΙ,37.99225,23.76046
1045,Kitty,4,ΘΗΣΕΙΟ,37.97854,23.72115
1046,Petros,4,ΕΜΠΟΡΙΚΟ ΤΡΙΓΩΝΟ-ΠΛΑΚΑ,37.97865,23.72586
1047,Konstantinos,3,ΠΑΓΚΡΑΤΙ,37.97122,23.74179
1048,Travelnest,4,ΜΟΥΣΕΙΟ-ΕΞΑΡΧΕΙΑ-ΝΕΑΠΟΛΗ,37.98835,23.72948
1049,Κωνσταντινος,22,ΠΑΓΚΡΑΤΙ,37.96988,23.74353
1050,Fire,4,ΑΓΙΟΣ ΚΩΝΣΤΑΝΤΙΝΟΣ-ΠΛΑΤΕΙΑ ΒΑΘΗΣ,37.985,23.72113
1051,Local Host,12,ΛΥΚΑΒΗΤΤΟΣ,37.9845406763855,23.743110562175943
1052,Sofi,7,ΕΜΠΟΡΙΚΟ ΤΡΙΓΩΝΟ-ΠΛΑΚΑ,37.97956509999999,23.7299669
1053,Zoia,6,ΚΟΛΩΝΑΚΙ,37.97940400573005,23.74564781266232
1054,Varvara,3,ΠΛΑΤΕΙΑ ΑΤΤΙΚΗΣ,37.99551,23.72852
1055,Athina And/Or Eleni,23,ΚΟΛΩΝΑΚΙ,37.9778319,23.7385294
1056,Angela And Akis,3,ΕΜΠΟΡΙΚΟ ΤΡΙΓΩΝΟ-ΠΛΑΚΑ,37.984170565209205,23.731829300522804
1057,Athens Experience,3,ΠΛΑΤΕΙΑ ΑΤΤΙΚΗΣ,37.9921406546566,23.726228747266457
1058,Jerry,9,ΠΕΔΙΟ ΑΡΕΩΣ,37.99526,23.73763
1059,Mk,3,ΠΑΓΚΡΑΤΙ,37.96982,23.74526
1060,Antreas,20,ΑΜΠΕΛΟΚΗΠΟΙ,37.99164,23.76549
1061,Ioannis,8,ΚΟΥΚΑΚΙ-ΜΑΚΡΥΓΙΑΝΝΗ,37.96418,23.71921
1062,Ioannis,4,ΓΟΥΔΙ,37.9842252,23.7622704
1063,Chryssa,9,ΣΤΑΔΙΟ,37.96674,23.73811
1064,Upstreet,121,ΚΟΛΩΝΑΚΙ,37.9799,23.74651
1065,Home Story,14,ΚΥΨΕΛΗ,37.99802,23.73752
1066,Emie,3,ΑΜΠΕΛΟΚΗΠΟΙ,37.9907448,23.7573096
1067,V² Development,27,ΑΓΙΟΣ ΚΩΝΣΤΑΝΤΙΝΟΣ-ΠΛΑΤΕΙΑ ΒΑΘΗΣ,37.984882,23.71797
1068,Tolis,4,ΝΕΟΣ ΚΟΣΜΟΣ,37.96054,23.72516
1069,Thomas,3,ΚΟΥΚΑΚΙ-ΜΑΚΡΥΓΙΑΝΝΗ,37.96208420000001,23.7218236
1070,Ιωάννης Άγγελος,18,ΑΓΙΟΣ ΚΩΝΣΤΑΝΤΙΝΟΣ-ΠΛΑΤΕΙΑ ΒΑΘΗΣ,37.99049,23.72222
1071,Steve,7,ΓΟΥΔΙ,37.98177,23.7622
1072,Nick,5,ΚΟΛΩΝΑΚΙ,37.979057903309965,23.744220134221035
1073,Sokol,42,ΚΕΡΑΜΕΙΚΟΣ,37.98139802196311,23.718000220737697
1074,Elysium,5,ΓΟΥΔΙ,37.98053,23.75888
1075,Nick,9,ΖΑΠΠΕΙΟ,37.967678,23.735849
1076,Keramos Athens,4,ΚΕΡΑΜΕΙΚΟΣ,37.9821,23.71466
1077,Solonos,20,ΠΛΑΤΕΙΑ ΑΤΤΙΚΗΣ,37.99227,23.72844
1078,V² Development,27,ΠΛΑΤΕΙΑ ΑΤΤΙΚΗΣ,37.996313,23.72988
1079,Christos,5,ΑΚΑΔΗΜΙΑ ΠΛΑΤΩΝΟΣ,37.98578,23.71596
1080,Nikolaos,3,ΚΟΛΩΝΑΚΙ,37.97867447918626,23.750269844164016
1081,Konstantinos,3,ΠΑΓΚΡΑΤΙ,37.97063,23.74842
1082,Maryland,56,ΠΛΑΤΕΙΑ ΑΜΕΡΙΚΗΣ,37.9994607,23.7319295
1083,Mgv,101,ΝΕΟΣ ΚΟΣΜΟΣ,37.96157,23.72494
1084,Greecing,17,ΓΟΥΔΙ,37.9812225,23.7599166
1085,LUXandEASY,15,ΠΑΤΗΣΙΑ,38.0137,23.7316
1086,Constantina,8,ΑΓΙΟΣ ΚΩΝΣΤΑΝΤΙΝΟΣ-ΠΛΑΤΕΙΑ ΒΑΘΗΣ,37.98225,23.71815
1087,City,3,ΕΜΠΟΡΙΚΟ ΤΡΙΓΩΝΟ-ΠΛΑΚΑ,37.9859321,23.7289531
1088,Matό,8,ΑΜΠΕΛΟΚΗΠΟΙ,37.9909738,23.7636444
1089,Giorgos,10,ΓΟΥΔΙ,37.98554,23.76776
1090,Evan&Anetta,68,ΕΜΠΟΡΙΚΟ ΤΡΙΓΩΝΟ-ΠΛΑΚΑ,37.9857834,23.7296504
1091,Nick,9,ΖΑΠΠΕΙΟ,37.96768,23.73585
1092,Local Host,12,ΠΑΓΚΡΑΤΙ,37.97332988097805,23.746546679962066
1093,Home,23,ΓΟΥΔΙ,37.98458105049027,23.76257045541457
1094,Advance Helix Development,8,ΕΜΠΟΡΙΚΟ ΤΡΙΓΩΝΟ-ΠΛΑΚΑ,37.98613,23.72846
1095,V² Development,27,ΑΜΠΕΛΟΚΗΠΟΙ,37.99026,23.76238
1096,Nikolaos,5,ΠΛΑΤΕΙΑ ΑΤΤΙΚΗΣ,37.99357,23.72897
1097,Stefanos,8,ΓΚΥΖΗ,37.99089974958071,23.750958423117144
1098,Home Story,14,ΚΥΨΕΛΗ,37.99975,23.73937
1099,Rosemary A.,3,ΠΑΤΗΣΙΑ,38.0094757,23.7348631
1100,Fiona,8,ΑΓΙΟΣ ΝΙΚΟΛΑΟΣ,38.0097407,23.7304349
1101,Demetris,7,ΚΕΡΑΜΕΙΚΟΣ,37.97914,23.71114
1102,Emmanuela,20,ΓΟΥΔΙ,37.9802,23.76084
1103,Central Five,5,ΠΕΤΡΑΛΩΝΑ,37.96752183011044,23.70801414107356
1104,Raise Team,42,ΕΛΛΗΝΟΡΩΣΩΝ,37.9991779,23.7715042
1105,Stefanos,8,ΠΑΓΚΡΑΤΙ,37.97154,23.74862
1106,Jessy,3,ΑΓΙΟΣ ΚΩΝΣΤΑΝΤΙΝΟΣ-ΠΛΑΤΕΙΑ ΒΑΘΗΣ,37.98139794726756,23.72082956135273
1107,Giorgos,3,ΠΑΓΚΡΑΤΙ,37.97205,23.74833
1108,Christos,3,ΠΑΓΚΡΑΤΙ,37.97187,23.74516
1109,Home,23,ΒΟΤΑΝΙΚΟΣ,37.9803,23.71069
1110,Harry,64,ΕΜΠΟΡΙΚΟ ΤΡΙΓΩΝΟ-ΠΛΑΚΑ,37.98454,23.72635
1111,Konstantinos,3,ΑΓΙΟΣ ΚΩΝΣΤΑΝΤΙΝΟΣ-ΠΛΑΤΕΙΑ ΒΑΘΗΣ,37.9827,23.72003
1112,Mgv,101,ΝΕΟΣ ΚΟΣΜΟΣ,37.961745631713306,23.724002550124347
1113,Ιωάννης Άγγελος,18,ΑΓΙΟΣ ΚΩΝΣΤΑΝΤΙΝΟΣ-ΠΛΑΤΕΙΑ ΒΑΘΗΣ,37.98611,23.72185
1114,Tèo,49,ΝΕΟΣ ΚΟΣΜΟΣ,37.9562208,23.7280779
1115,MyGreekVacations,19,ΘΗΣΕΙΟ,37.97365,23.71239
1116,Stratos,6,ΚΕΡΑΜΕΙΚΟΣ,37.98047,23.71717
1117,George,12,ΚΟΛΩΝΑΚΙ,37.98124,23.73776
1118,Tèo,49,ΝΕΟΣ ΚΟΣΜΟΣ,37.96089,23.72862
1119,Byoungsoo,3,ΕΜΠΟΡΙΚΟ ΤΡΙΓΩΝΟ-ΠΛΑΚΑ,37.9779615,23.7297666
1120,Homer & Isabella,58,ΣΕΠΟΛΙΑ,38.0034034,23.7148208
1121,Natasha,10,ΝΕΟΣ ΚΟΣΜΟΣ,37.958529709732495,23.728759447028224
1122,Chryssa,9,ΣΤΑΔΙΟ,37.96597,23.74498
1123,Pagona,11,ΑΚΡΟΠΟΛΗ,37.96322,23.71893
1124,Ventiri,4,ΙΛΙΣΙΑ,37.975938897983966,23.751472930688493
1125,Gtrip,15,ΝΙΡΒΑΝΑ,38.00884054734322,23.726858158240805
1126,Athens Houses,19,ΠΕΤΡΑΛΩΝΑ,37.97228,23.71163
1127,Upstreet,121,ΑΜΠΕΛΟΚΗΠΟΙ,37.990974,23.758076
1128,Liv,9,ΜΟΥΣΕΙΟ-ΕΞΑΡΧΕΙΑ-ΝΕΑΠΟΛΗ,37.98775,23.74107
1129,Your.Rentals,5,ΑΚΑΔΗΜΙΑ ΠΛΑΤΩΝΟΣ,37.9878754,23.7102899
1130,Ma Maison,7,ΓΚΑΖΙ,37.9787,23.71196
1131,Liroy,35,ΚΟΥΚΑΚΙ-ΜΑΚΡΥΓΙΑΝΝΗ,37.96314,23.72027
1132,Athens Houses,19,ΠΕΤΡΑΛΩΝΑ,37.96548,23.70987
1133,Kostas,12,ΒΟΤΑΝΙΚΟΣ,37.97952,23.71003
1134,HostPal,7,ΛΥΚΑΒΗΤΤΟΣ,37.98316,23.74029
1135,Akis & Marietta,3,ΓΚΥΖΗ,37.99116,23.75103
1136,Dimitris,5,ΚΥΨΕΛΗ,38.0018261,23.7428497
1137,Upstreet,121,ΛΥΚΑΒΗΤΤΟΣ,37.98138,23.74101
1138,Kostas,12,ΒΟΤΑΝΙΚΟΣ,37.97873,23.70794
1139,Θοδωρής,4,ΚΟΛΩΝΑΚΙ,37.9805526,23.7371348
1140,Nasos,10,ΚΟΥΚΑΚΙ-ΜΑΚΡΥΓΙΑΝΝΗ,37.968407,23.725826
1141,Kostas,12,ΒΟΤΑΝΙΚΟΣ,37.97887,23.70891
1142,George,3,ΚΟΛΩΝΑΚΙ,37.9794808,23.7454558
1143,Philip,11,ΑΓΙΟΣ ΚΩΝΣΤΑΝΤΙΝΟΣ-ΠΛΑΤΕΙΑ ΒΑΘΗΣ,37.98433,23.72396
1144,Nikolaos,4,ΓΚΥΖΗ,37.99244534445311,23.743793964385983
1145,Angeliki,7,ΠΑΓΚΡΑΤΙ,37.96507531692774,23.74852723558197
1146,Indigo,6,ΝΕΟΣ ΚΟΣΜΟΣ,37.9613074,23.7318905
1147,Solonos,20,ΑΓΙΟΣ ΚΩΝΣΤΑΝΤΙΝΟΣ-ΠΛΑΤΕΙΑ ΒΑΘΗΣ,37.99024,23.72799
1148,Nina,18,ΝΙΡΒΑΝΑ,38.0091127,23.7227641
1149,Oculus,4,ΑΝΩ ΚΥΨΕΛΗ,38.00819911967582,23.748380705199693
1150,MyGreek,20,ΚΟΥΚΑΚΙ-ΜΑΚΡΥΓΙΑΝΝΗ,37.96361395498125,23.721758135524013
1151,Solonos,20,ΛΥΚΑΒΗΤΤΟΣ,37.98473,23.74254
1152,Local Host,12,ΠΑΓΚΡΑΤΙ,37.96665,23.74738
1153,Dimkat,4,ΓΚΑΖΙ,37.97616551508809,23.70948677114276
1154,Stelios,22,ΚΟΛΩΝΟΣ,37.995377,23.716955
1155,Upstreet,121,ΚΟΛΩΝΑΚΙ,37.98148,23.73912
1156,D & Y Boutique Athens,50,ΚΕΡΑΜΕΙΚΟΣ,37.98006057739258,23.72355842590332
1157,Knb,4,ΚΟΥΚΑΚΙ-ΜΑΚΡΥΓΙΑΝΝΗ,37.9656604160937,23.726858113491826
1158,D & Y Boutique Athens,50,ΚΕΡΑΜΕΙΚΟΣ,37.9802,23.72357
1159,Jj,16,ΕΜΠΟΡΙΚΟ ΤΡΙΓΩΝΟ-ΠΛΑΚΑ,37.97218,23.7311
1160,Evelyn,20,ΕΜΠΟΡΙΚΟ ΤΡΙΓΩΝΟ-ΠΛΑΚΑ,37.9768634,23.7291254
1161,Αργυρώ,5,ΚΟΥΚΑΚΙ-ΜΑΚΡΥΓΙΑΝΝΗ,37.9668865,23.725885
1162,Ioannis,8,ΚΟΥΚΑΚΙ-ΜΑΚΡΥΓΙΑΝΝΗ,37.96435,23.7238
1163,NOHO Boutique,19,ΚΟΥΚΑΚΙ-ΜΑΚΡΥΓΙΑΝΝΗ,37.96508,23.72426
1164,Nick,9,ΖΑΠΠΕΙΟ,37.96713,23.7351
1165,Nestor,12,ΑΓΙΟΣ ΚΩΝΣΤΑΝΤΙΝΟΣ-ΠΛΑΤΕΙΑ ΒΑΘΗΣ,37.98418,23.72391
1166,Housefull,3,ΝΕΟΣ ΚΟΣΜΟΣ,37.9661724,23.729493101852405
1167,Upstreet,121,ΛΥΚΑΒΗΤΤΟΣ,37.98121,23.75011
1168,Aris And Dimitra,3,ΓΟΥΒΑ,37.95985,23.73832
1169,Athens Panorama Project,8,ΠΕΔΙΟ ΑΡΕΩΣ,37.99535,23.741
1170,Homer & Isabella,58,1Ο ΝΕΚΡΟΤΑΦΕΙΟ,37.961372,23.735786
1171,Viktor,33,ΑΓΙΟΣ ΚΩΝΣΤΑΝΤΙΝΟΣ-ΠΛΑΤΕΙΑ ΒΑΘΗΣ,37.9903647,23.7251179
1172,Anna,11,ΚΟΛΩΝΑΚΙ,37.976849,23.743191
1173,V² Development,27,ΑΓΙΟΣ ΚΩΝΣΤΑΝΤΙΝΟΣ-ΠΛΑΤΕΙΑ ΒΑΘΗΣ,37.9899601,23.7280234
1174,Upstreet,121,ΑΜΠΕΛΟΚΗΠΟΙ,37.98880159159592,23.76028627915258
1175,Viktor,33,ΠΛΑΤΕΙΑ ΑΤΤΙΚΗΣ,37.9939912,23.7249456
1176,Nikolaos,13,ΕΜΠΟΡΙΚΟ ΤΡΙΓΩΝΟ-ΠΛΑΚΑ,37.9826397,23.7325957
1177,Homm ®,13,ΑΓΙΟΣ ΚΩΝΣΤΑΝΤΙΝΟΣ-ΠΛΑΤΕΙΑ ΒΑΘΗΣ,37.98984,23.72261
1178,Evan&Anetta,68,ΘΗΣΕΙΟ,37.9768,23.72241
1179,Toni,47,ΜΟΥΣΕΙΟ-ΕΞΑΡΧΕΙΑ-ΝΕΑΠΟΛΗ,37.9899,23.73359
1180,Nestor,12,ΑΓΙΟΣ ΚΩΝΣΤΑΝΤΙΝΟΣ-ΠΛΑΤΕΙΑ ΒΑΘΗΣ,37.99146,23.72708
1181,Homer & Isabella,58,ΚΟΥΚΑΚΙ-ΜΑΚΡΥΓΙΑΝΝΗ,37.96360016,23.72069931
1182,Nikolaos,13,ΕΜΠΟΡΙΚΟ ΤΡΙΓΩΝΟ-ΠΛΑΚΑ,37.9826397,23.7325957
1183,Nikolaos,13,ΕΜΠΟΡΙΚΟ ΤΡΙΓΩΝΟ-ΠΛΑΚΑ,37.9826397,23.7325957
1184,Nikolaos,13,ΕΜΠΟΡΙΚΟ ΤΡΙΓΩΝΟ-ΠΛΑΚΑ,37.9826397,23.7325957
1185,Upstreet,121,ΠΑΓΚΡΑΤΙ,37.9722,23.74708
1186,Evangelia,5,ΠΛΑΤΕΙΑ ΑΤΤΙΚΗΣ,37.99909,23.72932
1187,Local Host,12,ΠΑΓΚΡΑΤΙ,37.96724,23.75008
1188,Σπυρίδων,3,ΜΟΥΣΕΙΟ-ΕΞΑΡΧΕΙΑ-ΝΕΑΠΟΛΗ,37.98750356627585,23.72946459800005
1189,Raise Team,42,ΕΛΛΗΝΟΡΩΣΩΝ,37.9991779,23.7715042
1190,Mgv,101,ΑΚΡΟΠΟΛΗ,37.96343,23.71725
1191,Antreas,20,ΑΜΠΕΛΟΚΗΠΟΙ,37.99039251355501,23.765651657182037
1192,Androniki,3,ΑΜΠΕΛΟΚΗΠΟΙ,38.00178,23.76411
1193,Gpm,36,ΑΚΡΟΠΟΛΗ,37.9639,23.71738
1194,Mgv,101,ΑΚΡΟΠΟΛΗ,37.96284932831448,23.71706827645589
1195,Petros,4,ΕΜΠΟΡΙΚΟ ΤΡΙΓΩΝΟ-ΠΛΑΚΑ,37.97865,23.72586
1196,Home Story,14,ΑΓΙΟΣ ΚΩΝΣΤΑΝΤΙΝΟΣ-ΠΛΑΤΕΙΑ ΒΑΘΗΣ,37.98435,23.72324
1197,Maryland,56,ΚΟΥΚΑΚΙ-ΜΑΚΡΥΓΙΑΝΝΗ,37.9614,23.7195
1198,Wyz Attiki,6,ΠΛΑΤΕΙΑ ΑΤΤΙΚΗΣ,37.995136,23.722794
1199,AthensApart,9,ΠΑΓΚΡΑΤΙ,37.9694664,23.748245
1200,Only ElPilar,10,ΜΟΥΣΕΙΟ-ΕΞΑΡΧΕΙΑ-ΝΕΑΠΟΛΗ,37.9849061,23.7335535
1201,Spyros,4,ΝΙΡΒΑΝΑ,38.00347,23.72519
1202,Homer & Isabella,58,1Ο ΝΕΚΡΟΤΑΦΕΙΟ,37.9613743,23.7357867
1203,Athina And/Or Eleni,23,ΠΑΓΚΡΑΤΙ,37.96885,23.75052
1204,Mgv,101,ΑΚΡΟΠΟΛΗ,37.96335,23.71688
1205,Segal Group,19,ΕΜΠΟΡΙΚΟ ΤΡΙΓΩΝΟ-ΠΛΑΚΑ,37.98176,23.72327
1206,Amelie,32,ΕΜΠΟΡΙΚΟ ΤΡΙΓΩΝΟ-ΠΛΑΚΑ,37.98059,23.72746
1207,Evan&Anetta,68,ΕΜΠΟΡΙΚΟ ΤΡΙΓΩΝΟ-ΠΛΑΚΑ,37.983406,23.729376
1208,V² Development,27,ΑΓΙΟΣ ΚΩΝΣΤΑΝΤΙΝΟΣ-ΠΛΑΤΕΙΑ ΒΑΘΗΣ,37.990414,23.722265
1209,Nomad'S,6,ΑΓΙΟΣ ΚΩΝΣΤΑΝΤΙΝΟΣ-ΠΛΑΤΕΙΑ ΒΑΘΗΣ,37.985055997041314,23.72393156899526
1210,Home Story,14,ΑΓΙΟΣ ΚΩΝΣΤΑΝΤΙΝΟΣ-ΠΛΑΤΕΙΑ ΒΑΘΗΣ,37.98441740892616,23.72360430308588
1211,Chris,13,ΑΓΙΟΣ ΚΩΝΣΤΑΝΤΙΝΟΣ-ΠΛΑΤΕΙΑ ΒΑΘΗΣ,37.98935,23.72366
1212,Vassilis,3,ΜΟΥΣΕΙΟ-ΕΞΑΡΧΕΙΑ-ΝΕΑΠΟΛΗ,37.987720399426685,23.7363187242324
1213,Tonia,8,ΚΟΛΩΝΑΚΙ,37.97832,23.74551
1214,Heritage,22,ΕΜΠΟΡΙΚΟ ΤΡΙΓΩΝΟ-ΠΛΑΚΑ,37.9786,23.73067
1215,Mgv,101,ΑΚΡΟΠΟΛΗ,37.96341,23.71779
1216,Klepsydra,14,ΕΜΠΟΡΙΚΟ ΤΡΙΓΩΝΟ-ΠΛΑΚΑ,37.97866,23.7292
1217,Mlg,19,ΕΜΠΟΡΙΚΟ ΤΡΙΓΩΝΟ-ΠΛΑΚΑ,37.9772076,23.7286277
1218,Emmanuela,20,ΚΟΥΚΑΚΙ-ΜΑΚΡΥΓΙΑΝΝΗ,37.9656,23.72545
1219,D & Y Boutique Athens,50,ΚΕΡΑΜΕΙΚΟΣ,37.98013,23.72354
1220,Christina,14,ΕΜΠΟΡΙΚΟ ΤΡΙΓΩΝΟ-ΠΛΑΚΑ,37.97452,23.73213
1221,YalaRent,9,ΕΜΠΟΡΙΚΟ ΤΡΙΓΩΝΟ-ΠΛΑΚΑ,37.97843640233111,23.73273414562074
1222,Ioannis,20,ΑΚΡΟΠΟΛΗ,37.9688045,23.7259448
1223,Christos,7,ΚΕΡΑΜΕΙΚΟΣ,37.980517,23.7131008
1224,Manos And Fay,13,ΝΕΟΣ ΚΟΣΜΟΣ,37.96471,23.73188
1225,Charikleia,3,ΕΜΠΟΡΙΚΟ ΤΡΙΓΩΝΟ-ΠΛΑΚΑ,37.97485,23.72861
1226,Jj,16,ΖΑΠΠΕΙΟ,37.96787791221452,23.73205428665062
1227,Manos And Fay,13,ΝΕΟΣ ΚΟΣΜΟΣ,37.96494,23.73021
1228,Manos And Fay,13,ΝΕΟΣ ΚΟΣΜΟΣ,37.96272,23.73034
1229,Klepsydra,14,ΕΜΠΟΡΙΚΟ ΤΡΙΓΩΝΟ-ΠΛΑΚΑ,37.97867,23.72952
1230,Gpm,36,ΝΕΟΣ ΚΟΣΜΟΣ,37.96302,23.72502
1231,Dinos,5,ΚΟΥΚΑΚΙ-ΜΑΚΡΥΓΙΑΝΝΗ,37.96277937412595,23.721596958335887
1232,Nik,10,ΠΛΑΤΕΙΑ ΑΤΤΙΚΗΣ,37.99972,23.72359
1233,Mk,3,ΠΑΓΚΡΑΤΙ,37.97057985868598,23.74653653675369
1234,Bill & John,30,ΓΚΑΖΙ,37.978039,23.711124
1235,Erjon,3,ΣΕΠΟΛΙΑ,38.00245,23.71883
1236,Theodoros,12,ΚΟΥΚΑΚΙ-ΜΑΚΡΥΓΙΑΝΝΗ,37.96395,23.72506
1237,Gpm,36,ΑΚΡΟΠΟΛΗ,37.96946,23.72556
1238,V² Development,27,ΠΛΑΤΕΙΑ ΑΤΤΙΚΗΣ,37.9962076,23.7277625
1239,Evagelos,8,ΕΜΠΟΡΙΚΟ ΤΡΙΓΩΝΟ-ΠΛΑΚΑ,37.9760821,23.7326493
1240,Be My Guest,10,ΝΕΟΣ ΚΟΣΜΟΣ,37.96178,23.72589
1241,V² Development,27,ΑΓΙΟΣ ΚΩΝΣΤΑΝΤΙΝΟΣ-ΠΛΑΤΕΙΑ ΒΑΘΗΣ,37.990791,23.7275958
1242,Spittaki,3,ΕΜΠΟΡΙΚΟ ΤΡΙΓΩΝΟ-ΠΛΑΚΑ,37.97693,23.72575
1243,Mgv,101,ΜΟΥΣΕΙΟ-ΕΞΑΡΧΕΙΑ-ΝΕΑΠΟΛΗ,37.98592831971818,23.743883314979765
1244,Bill And Helena,19,ΓΟΥΒΑ,37.9603,23.74026
1245,Stella And Nikos,25,ΑΚΡΟΠΟΛΗ,37.96977,23.7293
1246,La Residence Athens,4,ΓΟΥΔΙ,37.9795749,23.7570074
1247,Evangelos,15,ΠΛΑΤΕΙΑ ΑΤΤΙΚΗΣ,37.99621532400635,23.72740635223969
1248,Jj,16,ΕΜΠΟΡΙΚΟ ΤΡΙΓΩΝΟ-ΠΛΑΚΑ,37.97215,23.73104
1249,Heritage,22,ΕΜΠΟΡΙΚΟ ΤΡΙΓΩΝΟ-ΠΛΑΚΑ,37.97831,23.72925
1250,Vassilis,3,ΜΟΥΣΕΙΟ-ΕΞΑΡΧΕΙΑ-ΝΕΑΠΟΛΗ,37.98598869300126,23.735771466715665
1251,Niko And Andrea,13,ΕΜΠΟΡΙΚΟ ΤΡΙΓΩΝΟ-ΠΛΑΚΑ,37.976405,23.7305377
1252,Heritage,22,ΕΜΠΟΡΙΚΟ ΤΡΙΓΩΝΟ-ΠΛΑΚΑ,37.97724,23.73144
1253,Zack,9,ΛΥΚΑΒΗΤΤΟΣ,37.98394,23.74117
1254,Heritage,22,ΕΜΠΟΡΙΚΟ ΤΡΙΓΩΝΟ-ΠΛΑΚΑ,37.97866,23.7308
1255,Evdoxia,4,ΠΛΑΤΕΙΑ ΑΤΤΙΚΗΣ,37.99693,23.7299
1256,Ioannis,6,ΠΕΤΡΑΛΩΝΑ,37.96747,23.71181
1257,D & Y Boutique Athens,50,ΚΕΡΑΜΕΙΚΟΣ,37.9809,23.72254
1258,Dipsons,7,ΓΚΑΖΙ,37.97662,23.71114
1259,Emmanouil,7,ΑΜΠΕΛΟΚΗΠΟΙ,37.98924,23.765
1260,GK Properties,25,ΕΛΛΗΝΟΡΩΣΩΝ,37.9956647,23.7695696
1261,Dimitris,3,ΜΟΥΣΕΙΟ-ΕΞΑΡΧΕΙΑ-ΝΕΑΠΟΛΗ,37.98691,23.73122
1262,Dimitris,3,ΜΟΥΣΕΙΟ-ΕΞΑΡΧΕΙΑ-ΝΕΑΠΟΛΗ,37.98691,23.73122
1263,Μaria And Themis,6,ΝΕΟΣ ΚΟΣΜΟΣ,37.9567,23.71946
1264,Taleb,3,ΕΜΠΟΡΙΚΟ ΤΡΙΓΩΝΟ-ΠΛΑΚΑ,37.97707,23.72995
1265,Estate Fleet,9,ΠΑΤΗΣΙΑ,38.00982626837135,23.73642733133005
1266,Connect Apartments & Suites,8,ΑΓΙΟΣ ΚΩΝΣΤΑΝΤΙΝΟΣ-ΠΛΑΤΕΙΑ ΒΑΘΗΣ,37.98611,23.72185
1267,Upstreet,121,ΛΥΚΑΒΗΤΤΟΣ,37.98054,23.74524
1268,Mario,4,ΠΑΓΚΡΑΤΙ,37.9661353,23.7507784
1269,Nina,18,ΑΓΙΟΣ ΝΙΚΟΛΑΟΣ,38.0096111,23.7292909
1270,Matό,8,ΑΜΠΕΛΟΚΗΠΟΙ,37.9867926,23.7647925
1271,Alexandros,5,ΖΑΠΠΕΙΟ,37.966915130615234,23.733598709106445
1272,Athens Houses,19,ΑΜΠΕΛΟΚΗΠΟΙ,37.98503834059933,23.75518637213502
1273,Theo,3,ΘΗΣΕΙΟ,37.97772,23.72183
1274,Gpm,36,ΑΚΡΟΠΟΛΗ,37.96269,23.71869
1275,Athens,10,ΚΟΛΩΝΑΚΙ,37.97787,23.74116
1276,Harry,64,ΕΜΠΟΡΙΚΟ ΤΡΙΓΩΝΟ-ΠΛΑΚΑ,37.977956,23.7359789
1277,Viktor,3,ΠΛΑΤΕΙΑ ΑΤΤΙΚΗΣ,37.99412671575661,23.72333840102173
1278,Amelie,32,ΕΜΠΟΡΙΚΟ ΤΡΙΓΩΝΟ-ΠΛΑΚΑ,37.97892,23.72783
1279,Veronica,4,1Ο ΝΕΚΡΟΤΑΦΕΙΟ,37.96322,23.74079
1280,Konstantinos,20,ΝΕΟΣ ΚΟΣΜΟΣ,37.95594,23.7171
1281,Αριστειδης,33,ΠΛΑΤΕΙΑ ΑΤΤΙΚΗΣ,37.99564,23.72567
1282,Nestor,12,ΑΓΙΟΣ ΚΩΝΣΤΑΝΤΙΝΟΣ-ΠΛΑΤΕΙΑ ΒΑΘΗΣ,37.98399,23.72375
1283,Theodoros,12,ΚΟΥΚΑΚΙ-ΜΑΚΡΥΓΙΑΝΝΗ,37.96452,23.72621
1284,Αριστειδης,33,ΠΛΑΤΕΙΑ ΑΤΤΙΚΗΣ,38.0001,23.72458
1285,Nikolaos,13,ΕΜΠΟΡΙΚΟ ΤΡΙΓΩΝΟ-ΠΛΑΚΑ,37.9826397,23.7325957
1286,Smart Plan,8,ΓΟΥΔΙ,37.98267,23.75992
1287,Emmanouil,7,ΑΜΠΕΛΟΚΗΠΟΙ,37.98903,23.76448
1288,Spiros,12,ΚΟΛΩΝΑΚΙ,37.9769916,23.738966
1289,Greg,5,ΙΛΙΣΙΑ,37.97467,23.74893
1290,Ivy Vacation Rentals,21,ΚΟΥΚΑΚΙ-ΜΑΚΡΥΓΙΑΝΝΗ,37.962265,23.721516
1291,Roubina,20,ΕΜΠΟΡΙΚΟ ΤΡΙΓΩΝΟ-ΠΛΑΚΑ,37.97479,23.734
1292,Nomad'S,6,ΠΕΤΡΑΛΩΝΑ,37.96708,23.70816
1293,Ioannis,8,ΑΓΙΟΣ ΚΩΝΣΤΑΝΤΙΝΟΣ-ΠΛΑΤΕΙΑ ΒΑΘΗΣ,37.98756679246056,23.71886990222282
1294,Nikolaos,13,ΕΜΠΟΡΙΚΟ ΤΡΙΓΩΝΟ-ΠΛΑΚΑ,37.9826397,23.7325957
1295,Elysium,5,ΓΟΥΔΙ,37.98026,23.75898
1296,Zoia,6,ΛΥΚΑΒΗΤΤΟΣ,37.9797077,23.7447585
1297,Spyros,28,ΠΕΔΙΟ ΑΡΕΩΣ,37.99622,23.740532
1298,Upstreet,121,ΛΥΚΑΒΗΤΤΟΣ,37.98453,23.74601
1299,Κοσμας,3,ΒΟΤΑΝΙΚΟΣ,37.97953,23.70992
1300,Dropebnb,49,ΝΕΟΣ ΚΟΣΜΟΣ,37.9643374,23.72849
1301,Dimitris,3,ΕΜΠΟΡΙΚΟ ΤΡΙΓΩΝΟ-ΠΛΑΚΑ,37.97138316646316,23.73118111128788
1302,Leonidas,5,ΚΟΥΚΑΚΙ-ΜΑΚΡΥΓΙΑΝΝΗ,37.964809105281866,23.72711670740966
1303,Daniel,3,ΑΓΙΟΣ ΚΩΝΣΤΑΝΤΙΝΟΣ-ΠΛΑΤΕΙΑ ΒΑΘΗΣ,37.991003966394814,23.72680198256388
1304,Elysium,5,ΓΟΥΔΙ,37.98017,23.75744
1305,Avi,3,ΝΕΟΣ ΚΟΣΜΟΣ,37.96366605295982,23.727511092043983
1306,Christos,7,ΚΕΡΑΜΕΙΚΟΣ,37.980517,23.7131008
1307,Hellenic,6,ΣΕΠΟΛΙΑ,38.00272840703793,23.71890111512253
1308,Christos,7,ΚΕΡΑΜΕΙΚΟΣ,37.979946050841264,23.711954376764567
1309,Emmanouil,7,ΑΜΠΕΛΟΚΗΠΟΙ,37.988766,23.764748
1310,Hellenic,6,ΣΕΠΟΛΙΑ,38.0035,23.71833
1311,Bill & John,30,ΓΚΑΖΙ,37.978039,23.711124
1312,Nina,18,ΝΙΡΒΑΝΑ,38.0029191,23.7250832
1313,Χριστινα,3,ΝΙΡΒΑΝΑ,38.008243560791016,23.72316551208496
1314,Central Five,5,ΠΕΤΡΑΛΩΝΑ,37.9686729,23.7071801
1315,Maria,22,ΖΑΠΠΕΙΟ,37.9683808,23.7313545
1316,Manolis,7,ΛΥΚΑΒΗΤΤΟΣ,37.98554,23.74768
1317,Upstreet,121,ΛΥΚΑΒΗΤΤΟΣ,37.98586,23.74674
1318,Amelie,32,ΕΜΠΟΡΙΚΟ ΤΡΙΓΩΝΟ-ΠΛΑΚΑ,37.9799,23.72795
1319,Leonidas,22,ΚΟΥΚΑΚΙ-ΜΑΚΡΥΓΙΑΝΝΗ,37.96131,23.71888
1320,Evangelia,5,ΑΜΠΕΛΟΚΗΠΟΙ,37.9901,23.75845
1321,Zoia,6,ΛΥΚΑΒΗΤΤΟΣ,37.98564,23.74429
1322,Bill & John,30,ΓΚΑΖΙ,37.978039,23.711124
1323,Upstreet,121,ΑΜΠΕΛΟΚΗΠΟΙ,37.99233,23.76676
1324,Solonos,20,ΠΛΑΤΕΙΑ ΑΤΤΙΚΗΣ,37.99903,23.73
1325,Evan&Anetta,68,ΕΜΠΟΡΙΚΟ ΤΡΙΓΩΝΟ-ΠΛΑΚΑ,37.98351,23.73113
1326,HAUSolutions,20,ΝΕΟΣ ΚΟΣΜΟΣ,37.95885843671173,23.730830603125955
1327,Greg,5,ΙΛΙΣΙΑ,37.97471,23.74889
1328,Interni,3,ΚΕΡΑΜΕΙΚΟΣ,37.9796926,23.7109158
1329,Christos,7,ΒΟΤΑΝΙΚΟΣ,37.97561,23.70621
1330,Jenny,3,ΑΝΩ ΠΑΤΗΣΙΑ,38.018,23.74045
1331,Tia & Mike,11,ΕΜΠΟΡΙΚΟ ΤΡΙΓΩΝΟ-ΠΛΑΚΑ,37.97394,23.73095
1332,Antreas,20,ΑΜΠΕΛΟΚΗΠΟΙ,37.99020147644025,23.76404890361522
1333,Michalis,5,ΚΟΥΚΑΚΙ-ΜΑΚΡΥΓΙΑΝΝΗ,37.964240147677685,23.72299913316965
1334,Nikolaos,3,ΚΟΛΩΝΑΚΙ,37.97811,23.74971
1335,Central Five,5,ΠΕΤΡΑΛΩΝΑ,37.9686729,23.7071801
1336,Romanos,20,ΚΟΥΚΑΚΙ-ΜΑΚΡΥΓΙΑΝΝΗ,37.9675173,23.7287788
1337,Bill & John,30,ΝΕΟΣ ΚΟΣΜΟΣ,37.96252,23.72439
1338,LUXandEASY,15,ΠΑΤΗΣΙΑ,38.0132268,23.7307493
1339,Vassilis,3,1Ο ΝΕΚΡΟΤΑΦΕΙΟ,37.96431,23.73929
1340,Mgv,101,ΝΕΟΣ ΚΟΣΜΟΣ,37.96521682348092,23.73090125368192
1341,Spyros,7,ΑΚΡΟΠΟΛΗ,37.973023,23.7194696
1342,GK Properties,25,ΚΟΥΚΑΚΙ-ΜΑΚΡΥΓΙΑΝΝΗ,37.96485152349725,23.72382484539993
1343,George,9,ΕΜΠΟΡΙΚΟ ΤΡΙΓΩΝΟ-ΠΛΑΚΑ,37.97652,23.7297
1344,Antonis,14,ΕΜΠΟΡΙΚΟ ΤΡΙΓΩΝΟ-ΠΛΑΚΑ,37.9762589,23.7325586
1345,Byoungsoo,3,ΕΜΠΟΡΙΚΟ ΤΡΙΓΩΝΟ-ΠΛΑΚΑ,37.9779615,23.7297666
1346,Maria & Prokopis,5,ΚΕΡΑΜΕΙΚΟΣ,37.97964477539063,23.72140312194824
1347,Byoungsoo,3,ΕΜΠΟΡΙΚΟ ΤΡΙΓΩΝΟ-ΠΛΑΚΑ,37.9779615,23.7297666
1348,Leonidas,22,ΚΟΥΚΑΚΙ-ΜΑΚΡΥΓΙΑΝΝΗ,37.964338565816746,23.72160602698364
1349,Konstantinos,20,ΑΚΡΟΠΟΛΗ,37.96969,23.72642
1350,NOHO Boutique,19,ΚΟΥΚΑΚΙ-ΜΑΚΡΥΓΙΑΝΝΗ,37.96662,23.72377
1351,Leonidas,22,ΚΟΥΚΑΚΙ-ΜΑΚΡΥΓΙΑΝΝΗ,37.96852,23.73093
1352,Interni,3,ΚΕΡΑΜΕΙΚΟΣ,37.9796926,23.7109158
1353,Emmanouil,6,ΜΟΥΣΕΙΟ-ΕΞΑΡΧΕΙΑ-ΝΕΑΠΟΛΗ,37.9887,23.73735
1354,Konstantinos,20,ΑΚΡΟΠΟΛΗ,37.96835,23.72461
1355,Antonia,12,ΖΑΠΠΕΙΟ,37.96923,23.7319
1356,Nina,18,ΠΛΑΤΕΙΑ ΑΜΕΡΙΚΗΣ,38.0014095,23.7293143
1357,Nestor,12,ΑΓΙΟΣ ΚΩΝΣΤΑΝΤΙΝΟΣ-ΠΛΑΤΕΙΑ ΒΑΘΗΣ,37.98369,23.72492
1358,Liroy,35,ΚΟΥΚΑΚΙ-ΜΑΚΡΥΓΙΑΝΝΗ,37.96241,23.72072
1359,Heritage,22,ΕΜΠΟΡΙΚΟ ΤΡΙΓΩΝΟ-ΠΛΑΚΑ,37.97668,23.73071
1360,Alexander,5,ΚΟΥΚΑΚΙ-ΜΑΚΡΥΓΙΑΝΝΗ,37.96468,23.72165
1361,Heritage,22,ΕΜΠΟΡΙΚΟ ΤΡΙΓΩΝΟ-ΠΛΑΚΑ,37.97857,23.72924
1362,MyGreekVacations,19,ΘΗΣΕΙΟ,37.9753,23.71402
1363,Αριστειδης,33,ΠΑΓΚΡΑΤΙ,37.97197,23.74509
1364,Nasos,10,ΚΟΥΚΑΚΙ-ΜΑΚΡΥΓΙΑΝΝΗ,37.969345,23.729937
1365,Wyz Attiki,6,ΠΛΑΤΕΙΑ ΑΤΤΙΚΗΣ,37.995251,23.722631
1366,Heritage,22,ΕΜΠΟΡΙΚΟ ΤΡΙΓΩΝΟ-ΠΛΑΚΑ,37.97815,23.72931
1367,Charikleia,3,ΕΜΠΟΡΙΚΟ ΤΡΙΓΩΝΟ-ΠΛΑΚΑ,37.97626,23.72697
1368,Evangelos,15,ΠΛΑΤΕΙΑ ΑΤΤΙΚΗΣ,37.99589830271264,23.727546066231653
1369,Tourigo,14,ΣΤΑΔΙΟ,37.96513,23.74307
1370,Leonidas,22,ΚΟΥΚΑΚΙ-ΜΑΚΡΥΓΙΑΝΝΗ,37.96234,23.71991
1371,George,6,ΕΜΠΟΡΙΚΟ ΤΡΙΓΩΝΟ-ΠΛΑΚΑ,37.9775557,23.7266288
1372,Athina And/Or Eleni,23,ΚΟΛΩΝΑΚΙ,37.97736,23.74536
1373,Vasileios,3,ΝΕΟΣ ΚΟΣΜΟΣ,37.96387,23.73242
1374,Liv,9,ΑΚΡΟΠΟΛΗ,37.96307432448309,23.717880900217622
1375,Theodoros,12,ΚΟΥΚΑΚΙ-ΜΑΚΡΥΓΙΑΝΝΗ,37.96395,23.72506
1376,Sokol,42,ΚΕΡΑΜΕΙΚΟΣ,37.98008,23.72307
1377,Iordanka,5,ΚΟΥΚΑΚΙ-ΜΑΚΡΥΓΙΑΝΝΗ,37.96662,23.72471
1378,Stavros,4,ΠΑΓΚΡΑΤΙ,37.97351027981668,23.74716686833901
1379,Dropebnb,49,ΝΕΟΣ ΚΟΣΜΟΣ,37.95726,23.729418
1380,Theodoros,12,ΚΟΥΚΑΚΙ-ΜΑΚΡΥΓΙΑΝΝΗ,37.96431,23.72416
1381,Ana,4,ΝΕΟΣ ΚΟΣΜΟΣ,37.965530509534254,23.73055844282157
1382,Anna,11,ΠΑΓΚΡΑΤΙ,37.97311782836914,23.7479248046875
1383,George,57,ΕΜΠΟΡΙΚΟ ΤΡΙΓΩΝΟ-ΠΛΑΚΑ,37.9740628338093,23.73134003559856
1384,Theodoros,12,ΚΟΥΚΑΚΙ-ΜΑΚΡΥΓΙΑΝΝΗ,37.96395,23.72506
1385,Vassiliki Giannakopoulou,3,ΕΜΠΟΡΙΚΟ ΤΡΙΓΩΝΟ-ΠΛΑΚΑ,37.97606874997321,23.730828166008
1386,MyGreek,20,ΚΟΥΚΑΚΙ-ΜΑΚΡΥΓΙΑΝΝΗ,37.96328,23.72159
1387,Mgv,101,ΑΚΡΟΠΟΛΗ,37.96456,23.71874
1388,Mgv,101,ΑΚΡΟΠΟΛΗ,37.96317656727626,23.717101012510295
1389,Erjon,3,ΑΓΙΟΣ ΝΙΚΟΛΑΟΣ,38.00998272918522,23.72923158109188
1390,ITravelhome,5,ΝΕΟΣ ΚΟΣΜΟΣ,37.96632,23.72979
1391,Yana,4,ΚΟΥΚΑΚΙ-ΜΑΚΡΥΓΙΑΝΝΗ,37.9662,23.72764
1392,Heritage,22,ΕΜΠΟΡΙΚΟ ΤΡΙΓΩΝΟ-ΠΛΑΚΑ,37.97852,23.72941
1393,Dropebnb,49,ΜΟΥΣΕΙΟ-ΕΞΑΡΧΕΙΑ-ΝΕΑΠΟΛΗ,37.9849676,23.7375067
1394,Michael,3,ΠΛΑΤΕΙΑ ΑΤΤΙΚΗΣ,37.99678802490234,23.729671478271484
1395,Panagiotis,20,ΕΜΠΟΡΙΚΟ ΤΡΙΓΩΝΟ-ΠΛΑΚΑ,37.9782427,23.7284144
1396,Theofrastos,6,ΝΕΟΣ ΚΟΣΜΟΣ,37.96457,23.72752
1397,Maryland,56,ΑΝΩ ΚΥΨΕΛΗ,38.00485,23.74131
1398,George,57,ΕΜΠΟΡΙΚΟ ΤΡΙΓΩΝΟ-ΠΛΑΚΑ,37.97498,23.73062
1399,Marietta,8,ΚΕΡΑΜΕΙΚΟΣ,37.97929,23.72297
1400,George,57,ΘΗΣΕΙΟ,37.97524,23.71322
1401,Ivy Vacation Rentals,21,ΚΟΥΚΑΚΙ-ΜΑΚΡΥΓΙΑΝΝΗ,37.966148,23.728256
1402,Dpa,8,ΘΗΣΕΙΟ,37.97458,23.71399
1403,Dropebnb,49,ΜΟΥΣΕΙΟ-ΕΞΑΡΧΕΙΑ-ΝΕΑΠΟΛΗ,37.9849676,23.7375067
1404,MyGreek,20,ΚΟΥΚΑΚΙ-ΜΑΚΡΥΓΙΑΝΝΗ,37.96338,23.72166
1405,MyGreek,20,ΚΟΥΚΑΚΙ-ΜΑΚΡΥΓΙΑΝΝΗ,37.963764,23.719246
1406,Ouiliam,22,ΚΟΛΩΝΑΚΙ,37.9780303,23.7407143
1407,Panagiotis,20,ΕΜΠΟΡΙΚΟ ΤΡΙΓΩΝΟ-ΠΛΑΚΑ,37.9841628,23.7316145
1408,Thanos,9,ΚΟΥΚΑΚΙ-ΜΑΚΡΥΓΙΑΝΝΗ,37.96222961727588,23.72052680701017
1409,George,57,ΖΑΠΠΕΙΟ,37.96686,23.73145
1410,Effrossyni,4,ΠΛΑΤΕΙΑ ΑΤΤΙΚΗΣ,37.9936,23.73039
1411,D & Y Boutique Athens,50,ΚΕΡΑΜΕΙΚΟΣ,37.97998809814453,23.72359848022461
1412,Zain Property,7,ΠΛΑΤΕΙΑ ΑΤΤΙΚΗΣ,37.9972066,23.7286577
1413,Mgv,101,ΑΚΡΟΠΟΛΗ,37.96286126216046,23.717235435819365
1414,Manos,9,ΕΜΠΟΡΙΚΟ ΤΡΙΓΩΝΟ-ΠΛΑΚΑ,37.97717,23.72831
1415,Do  Disturb,3,ΚΟΥΚΑΚΙ-ΜΑΚΡΥΓΙΑΝΝΗ,37.96464,23.72558
1416,MyGreek,20,ΚΟΥΚΑΚΙ-ΜΑΚΡΥΓΙΑΝΝΗ,37.96369,23.72018
1417,Wyz Attiki,6,ΠΛΑΤΕΙΑ ΑΤΤΙΚΗΣ,37.995251,23.722631
1418,D & Y Boutique Athens,50,ΚΕΡΑΜΕΙΚΟΣ,37.98003621919983,23.72332008465576
1419,MyGreekVacations,19,ΘΗΣΕΙΟ,37.97361,23.71355
1420,Diamond,18,ΕΜΠΟΡΙΚΟ ΤΡΙΓΩΝΟ-ΠΛΑΚΑ,37.9737118,23.7298877
1421,Nina,18,ΠΛΑΤΕΙΑ ΑΜΕΡΙΚΗΣ,38.00690194140084,23.734296622090135
1422,Nina,18,ΠΛΑΤΕΙΑ ΑΜΕΡΙΚΗΣ,38.0058143391904,23.73385686914432
1423,D & Y Boutique Athens,50,ΚΕΡΑΜΕΙΚΟΣ,37.9795639,23.7229965
1424,Romanos,20,ΣΤΑΔΙΟ,37.96793,23.74181
1425,Theo,3,ΘΗΣΕΙΟ,37.97772,23.72183
1426,Amalia,3,ΑΚΡΟΠΟΛΗ,37.971588,23.729853
1427,Ethereal,10,ΕΜΠΟΡΙΚΟ ΤΡΙΓΩΝΟ-ΠΛΑΚΑ,37.9759756,23.7321331
1428,Theofrastos,6,ΝΕΟΣ ΚΟΣΜΟΣ,37.9649982421244,23.729104846715927
1429,Gtrip,15,ΝΙΡΒΑΝΑ,38.01526723939253,23.72076545667594
1430,Georgios,3,ΚΕΡΑΜΕΙΚΟΣ,37.98292,23.71485
1431,George,6,ΕΜΠΟΡΙΚΟ ΤΡΙΓΩΝΟ-ΠΛΑΚΑ,37.9775557,23.7266288
1432,Eleni,4,ΑΜΠΕΛΟΚΗΠΟΙ,37.98233,23.75633
1433,Dimitrios,4,ΕΜΠΟΡΙΚΟ ΤΡΙΓΩΝΟ-ΠΛΑΚΑ,37.9800009,23.7266176
1434,Gtrip,15,ΣΤΑΔΙΟ,37.96707,23.74418
1435,Ethereal,10,ΕΜΠΟΡΙΚΟ ΤΡΙΓΩΝΟ-ΠΛΑΚΑ,37.975975,23.732134
1436,Dropebnb,49,ΝΕΟΣ ΚΟΣΜΟΣ,37.9572589,23.729418
1437,Mgv,101,ΑΚΡΟΠΟΛΗ,37.96493,23.72077
1438,Marios,8,ΕΜΠΟΡΙΚΟ ΤΡΙΓΩΝΟ-ΠΛΑΚΑ,37.97076,23.730583
1439,Marios,8,ΕΜΠΟΡΙΚΟ ΤΡΙΓΩΝΟ-ΠΛΑΚΑ,37.97076,23.730583
1440,Marios,8,ΕΜΠΟΡΙΚΟ ΤΡΙΓΩΝΟ-ΠΛΑΚΑ,37.97076,23.730583
1441,Marios,8,ΕΜΠΟΡΙΚΟ ΤΡΙΓΩΝΟ-ΠΛΑΚΑ,37.97076,23.730583
1442,Antonis,14,ΕΜΠΟΡΙΚΟ ΤΡΙΓΩΝΟ-ΠΛΑΚΑ,37.9773063659668,23.724733352661133
1443,Elena,7,ΚΟΥΚΑΚΙ-ΜΑΚΡΥΓΙΑΝΝΗ,37.96669744628267,23.72407198685631
1444,George,57,ΘΗΣΕΙΟ,37.97780799513297,23.721828457922307
1445,Evan&Anetta,68,ΕΜΠΟΡΙΚΟ ΤΡΙΓΩΝΟ-ΠΛΑΚΑ,37.979359,23.72477
1446,Harry,3,ΚΟΛΩΝΑΚΙ,37.97826,23.74931
1447,Evan&Anetta,68,ΕΜΠΟΡΙΚΟ ΤΡΙΓΩΝΟ-ΠΛΑΚΑ,37.979359,23.72477
1448,Ethereal,10,ΕΜΠΟΡΙΚΟ ΤΡΙΓΩΝΟ-ΠΛΑΚΑ,37.9759756,23.7321331
1449,D & Y Boutique Athens,50,ΚΕΡΑΜΕΙΚΟΣ,37.98006057739258,23.72355842590332
1450,Christos,3,ΕΜΠΟΡΙΚΟ ΤΡΙΓΩΝΟ-ΠΛΑΚΑ,37.97744230000001,23.7253271
1451,Christina,14,ΕΜΠΟΡΙΚΟ ΤΡΙΓΩΝΟ-ΠΛΑΚΑ,37.97512,23.73263
1452,D & Y Boutique Athens,50,ΚΕΡΑΜΕΙΚΟΣ,37.9802,23.72357
1453,NOHO Boutique,19,ΚΟΥΚΑΚΙ-ΜΑΚΡΥΓΙΑΝΝΗ,37.96558,23.72307
1454,Athenian Life Collection,6,ΚΥΨΕΛΗ,38.00054,23.73713
1455,Ivy Vacation Rentals,21,ΚΟΥΚΑΚΙ-ΜΑΚΡΥΓΙΑΝΝΗ,37.96712857304804,23.7284200385952
1456,Tèo,49,ΝΕΟΣ ΚΟΣΜΟΣ,37.9638922,23.7277474
1457,Nick,9,ΖΑΠΠΕΙΟ,37.96768,23.73585
1458,Κωνσταντινος,22,ΠΑΓΚΡΑΤΙ,37.96862,23.74863
1459,Stavros,15,ΝΕΟΣ ΚΟΣΜΟΣ,37.9613,23.73097
1460,Αριστειδης,33,ΠΛΑΤΕΙΑ ΑΤΤΙΚΗΣ,37.99741,23.73072
1461,City,3,ΕΜΠΟΡΙΚΟ ΤΡΙΓΩΝΟ-ΠΛΑΚΑ,37.9859321,23.7289531
1462,Dropebnb,49,ΜΟΥΣΕΙΟ-ΕΞΑΡΧΕΙΑ-ΝΕΑΠΟΛΗ,37.98605149999999,23.740987
1463,Home,3,ΓΟΥΔΙ,37.986079519438086,23.76295090376912
1464,Home Story,14,ΚΥΨΕΛΗ,37.99804,23.73895
1465,Viktor,33,ΠΛΑΤΕΙΑ ΑΤΤΙΚΗΣ,37.9946467,23.7255917
1466,Mgv,101,ΑΚΡΟΠΟΛΗ,37.96341,23.7175
1467,Ioannis,3,ΝΕΟΣ ΚΟΣΜΟΣ,37.95403,23.72614
1468,Solonos,20,ΠΛΑΤΕΙΑ ΑΤΤΙΚΗΣ,37.99614,23.7307
1469,Konstantinos,20,ΑΚΡΟΠΟΛΗ,37.96983,23.72426
1470,Jj,16,ΕΜΠΟΡΙΚΟ ΤΡΙΓΩΝΟ-ΠΛΑΚΑ,37.97156,23.73056
1471,Nina,18,ΚΟΥΚΑΚΙ-ΜΑΚΡΥΓΙΑΝΝΗ,37.9638689,23.7215138
1472,Αντώνης Μαρία,3,ΕΜΠΟΡΙΚΟ ΤΡΙΓΩΝΟ-ΠΛΑΚΑ,37.97551,23.73206
1473,Emmanuela,20,ΙΛΙΣΙΑ,37.97704,23.75415
1474,Konstantinos,3,ΕΜΠΟΡΙΚΟ ΤΡΙΓΩΝΟ-ΠΛΑΚΑ,37.9743255,23.7316959
1475,Tèo,49,ΝΕΟΣ ΚΟΣΜΟΣ,37.9589213,23.7357402
1476,George,12,ΚΟΛΩΝΑΚΙ,37.98058764984113,23.738075237323525
1477,Evangelos,15,ΠΛΑΤΕΙΑ ΑΤΤΙΚΗΣ,37.994599955582174,23.7275595867714
1478,Dimitra,6,ΑΝΩ ΠΑΤΗΣΙΑ,38.01675,23.73077
1479,Charikleia,3,ΕΜΠΟΡΙΚΟ ΤΡΙΓΩΝΟ-ΠΛΑΚΑ,37.97582,23.72727
1480,WSD Home Inn,27,ΣΕΠΟΛΙΑ,38.0028927,23.7136645
1481,Bill & John,30,ΓΚΑΖΙ,37.978039,23.711124
1482,Matό,8,ΑΜΠΕΛΟΚΗΠΟΙ,37.9910007,23.7636655
1483,Evangelos,15,ΠΛΑΤΕΙΑ ΑΤΤΙΚΗΣ,37.99622791362585,23.729526146004897
1484,Spiros,12,ΑΜΠΕΛΟΚΗΠΟΙ,37.98659,23.76219
1485,Raise Team,42,ΕΛΛΗΝΟΡΩΣΩΝ,37.9991779,23.7715042
1486,Home Story,14,ΛΥΚΑΒΗΤΤΟΣ,37.984069629361336,23.74222762543571
1487,Natasha,10,ΝΕΟΣ ΚΟΣΜΟΣ,37.96252,23.72439
1488,Ioannis,3,ΝΕΟΣ ΚΟΣΜΟΣ,37.95211142474994,23.72483233293804
1489,Nelly,11,ΑΓΙΟΣ ΚΩΝΣΤΑΝΤΙΝΟΣ-ΠΛΑΤΕΙΑ ΒΑΘΗΣ,37.98575,23.71876
1490,Raise Team,42,ΕΛΛΗΝΟΡΩΣΩΝ,37.9991779,23.7715042
1491,Oculus,4,ΠΛΑΤΕΙΑ ΑΜΕΡΙΚΗΣ,38.0020956,23.7326372
1492,Athina And/Or Eleni,23,ΚΟΛΩΝΑΚΙ,37.97802,23.75084
1493,Marianna,19,ΠΑΤΗΣΙΑ,38.01244,23.7289
1494,Kοnstantinos,11,ΑΓΙΟΣ ΚΩΝΣΤΑΝΤΙΝΟΣ-ΠΛΑΤΕΙΑ ΒΑΘΗΣ,37.98417,23.71909
1495,Effrossyni,4,ΚΥΨΕΛΗ,37.99967,23.73461
1496,Your.Rentals,5,ΠΛΑΤΕΙΑ ΑΤΤΙΚΗΣ,37.99248359410207,23.72708569895018
1497,Athens Experience,3,ΑΓΙΟΣ ΚΩΝΣΤΑΝΤΙΝΟΣ-ΠΛΑΤΕΙΑ ΒΑΘΗΣ,37.98887,23.72883
1498,Αριστειδης,33,ΠΛΑΤΕΙΑ ΑΤΤΙΚΗΣ,37.9947495,23.7291509
1499,Multipath,7,ΑΜΠΕΛΟΚΗΠΟΙ,37.989685,23.765181
1500,Hellenic,6,ΣΕΠΟΛΙΑ,38.00442,23.72029
1501,Central Five,5,ΠΕΤΡΑΛΩΝΑ,37.9686729,23.7071801
1502,Christos,5,ΑΚΑΔΗΜΙΑ ΠΛΑΤΩΝΟΣ,37.98591,23.71312
1503,Nick,9,ΖΑΠΠΕΙΟ,37.967678,23.735849
1504,Adnan,3,ΣΤΑΔΙΟ,37.96835738660484,23.743719528424705
1505,Your.Rentals,5,ΑΜΠΕΛΟΚΗΠΟΙ,37.9893682,23.76380719999997
1506,Manolis,16,ΜΟΥΣΕΙΟ-ΕΞΑΡΧΕΙΑ-ΝΕΑΠΟΛΗ,37.98990992241297,23.739639884655784
1507,Anastasios,4,ΕΛΛΗΝΟΡΩΣΩΝ,37.993036013992565,23.77248034340644
1508,Kοnstantinos,11,ΑΓΙΟΣ ΚΩΝΣΤΑΝΤΙΝΟΣ-ΠΛΑΤΕΙΑ ΒΑΘΗΣ,37.98235,23.71879
1509,Manos And Fay,13,ΝΕΟΣ ΚΟΣΜΟΣ,37.96187,23.72892
1510,Dropebnb,49,ΝΕΟΣ ΚΟΣΜΟΣ,37.9594042,23.7277909
1511,Homer & Isabella,58,ΣΤΑΔΙΟ,37.9670048,23.74362
1512,Nick,9,ΖΑΠΠΕΙΟ,37.96768,23.73585
1513,Monkfish Trading MON IKE,26,ΓΚΑΖΙ,37.97605802148324,23.70872696158967
1514,Klepsydra,14,ΕΜΠΟΡΙΚΟ ΤΡΙΓΩΝΟ-ΠΛΑΚΑ,37.97844,23.73093
1515,Olga & Sarantis,3,ΑΚΡΟΠΟΛΗ,37.96392214504905,23.719022758305076
1516,Tèo,49,ΝΕΟΣ ΚΟΣΜΟΣ,37.9563479,23.7280512
1517,Νικολαος,4,ΑΓΙΟΣ ΚΩΝΣΤΑΝΤΙΝΟΣ-ΠΛΑΤΕΙΑ ΒΑΘΗΣ,37.9906998,23.7225378
1518,Joelle,14,ΠΑΓΚΡΑΤΙ,37.9719289230857,23.74365460804169
1519,V² Development,27,ΑΓΙΟΣ ΚΩΝΣΤΑΝΤΙΝΟΣ-ΠΛΑΤΕΙΑ ΒΑΘΗΣ,37.984756,23.717852
1520,Nasos,41,ΣΤΑΔΙΟ,37.9678977,23.7440897
1521,Viktor,33,ΠΛΑΤΕΙΑ ΑΤΤΙΚΗΣ,37.9997284,23.7289607
1522,Dropebnb,49,ΝΕΟΣ ΚΟΣΜΟΣ,37.9572589,23.729418
1523,Viktor,3,ΑΓΙΟΣ ΚΩΝΣΤΑΝΤΙΝΟΣ-ΠΛΑΤΕΙΑ ΒΑΘΗΣ,37.989745561583845,23.72475134494153
1524,Baran,3,ΠΕΤΡΑΛΩΝΑ,37.96694,23.70494
1525,Sunny Home,15,ΣΤΑΔΙΟ,37.96581,23.73515
1526,Evan&Anetta,68,ΕΜΠΟΡΙΚΟ ΤΡΙΓΩΝΟ-ΠΛΑΚΑ,37.983475,23.731138
1527,Upstreet,121,ΚΟΛΩΝΑΚΙ,37.97962,23.73795
1528,Fire,4,ΑΓΙΟΣ ΚΩΝΣΤΑΝΤΙΝΟΣ-ΠΛΑΤΕΙΑ ΒΑΘΗΣ,37.98434,23.72116
1529,Upstreet,121,ΠΑΓΚΡΑΤΙ,37.96794,23.74982
1530,Evan&Anetta,68,ΕΜΠΟΡΙΚΟ ΤΡΙΓΩΝΟ-ΠΛΑΚΑ,37.98351,23.73113
1531,Icaria,3,ΣΤΑΔΙΟ,37.96991,23.74173
1532,Homer & Isabella,58,ΓΟΥΔΙ,37.9832013,23.7607959
1533,Athina And/Or Eleni,23,ΚΟΛΩΝΑΚΙ,37.97803,23.74278
1534,Connect Apartments & Suites,8,ΑΓΙΟΣ ΚΩΝΣΤΑΝΤΙΝΟΣ-ΠΛΑΤΕΙΑ ΒΑΘΗΣ,37.98658,23.71814
1535,Μaria And Themis,6,ΝΕΟΣ ΚΟΣΜΟΣ,37.95641,23.71979
1536,Raise Team,42,ΕΛΛΗΝΟΡΩΣΩΝ,37.9991779,23.7715042
1537,TopHouzzing Properties,41,ΝΕΟΣ ΚΟΣΜΟΣ,37.9627,23.72711
1538,Upstreet,121,ΛΥΚΑΒΗΤΤΟΣ,37.98004,23.74605
1539,Nomad'S,6,ΠΕΤΡΑΛΩΝΑ,37.96839902435213,23.70826572941487
1540,Viktor,33,ΠΛΑΤΕΙΑ ΑΤΤΙΚΗΣ,37.9951429,23.7280001
1541,Viktor,33,ΠΛΑΤΕΙΑ ΑΤΤΙΚΗΣ,37.9952007,23.7290044
1542,Angela And Akis,3,ΕΜΠΟΡΙΚΟ ΤΡΙΓΩΝΟ-ΠΛΑΚΑ,37.9851,23.73099
1543,Ioannis,6,ΠΕΤΡΑΛΩΝΑ,37.96933,23.71172
1544,Spyros,4,ΝΙΡΒΑΝΑ,38.0042,23.72415
1545,George,9,ΕΜΠΟΡΙΚΟ ΤΡΙΓΩΝΟ-ΠΛΑΚΑ,37.97871,23.72999
1546,Pygmalion,8,ΚΟΛΩΝΑΚΙ,37.97746331876904,23.74460867967728
1547,Adnan,3,ΣΤΑΔΙΟ,37.96836647268598,23.743712621022357
1548,Mgv,101,ΑΚΡΟΠΟΛΗ,37.9632131669361,23.71663050184429
1549,Evangelos,15,ΠΛΑΤΕΙΑ ΑΤΤΙΚΗΣ,37.99635,23.72897
1550,Harry,3,ΚΟΛΩΝΑΚΙ,37.97771,23.74929
1551,Evangelos,15,ΠΛΑΤΕΙΑ ΑΤΤΙΚΗΣ,37.99590744527772,23.72750177492721
1552,Heartlock,8,ΑΚΡΟΠΟΛΗ,37.96617081249605,23.715287215344237
1553,Athenian Life Collection,6,ΚΥΨΕΛΗ,38.000274658203125,23.73621368408203
1554,George,57,ΕΜΠΟΡΙΚΟ ΤΡΙΓΩΝΟ-ΠΛΑΚΑ,37.97851,23.73003
1555,D & Y Boutique Athens,50,ΚΕΡΑΜΕΙΚΟΣ,37.979988,23.723598
1556,Petros,4,ΕΜΠΟΡΙΚΟ ΤΡΙΓΩΝΟ-ΠΛΑΚΑ,37.97865,23.72586
1557,Tèo,49,ΑΚΡΟΠΟΛΗ,37.96953,23.72595
1558,Theodoros,12,ΚΟΥΚΑΚΙ-ΜΑΚΡΥΓΙΑΝΝΗ,37.96327,23.7217
1559,Avi,3,ΜΟΥΣΕΙΟ-ΕΞΑΡΧΕΙΑ-ΝΕΑΠΟΛΗ,37.98547,23.74215
1560,D & Y Boutique Athens,50,ΚΟΥΚΑΚΙ-ΜΑΚΡΥΓΙΑΝΝΗ,37.96648,23.7276
1561,Christina,14,ΕΜΠΟΡΙΚΟ ΤΡΙΓΩΝΟ-ΠΛΑΚΑ,37.97517,23.73269
1562,Klepsydra,14,ΕΜΠΟΡΙΚΟ ΤΡΙΓΩΝΟ-ΠΛΑΚΑ,37.97996,23.72859
1563,Petros,4,ΕΜΠΟΡΙΚΟ ΤΡΙΓΩΝΟ-ΠΛΑΚΑ,37.97865,23.72586
1564,Αντώνης Μαρία,3,ΕΜΠΟΡΙΚΟ ΤΡΙΓΩΝΟ-ΠΛΑΚΑ,37.97609,23.732
1565,Oculus,4,ΑΝΩ ΚΥΨΕΛΗ,38.007226,23.748776
1566,Hermes,10,ΕΜΠΟΡΙΚΟ ΤΡΙΓΩΝΟ-ΠΛΑΚΑ,37.97872,23.72621
1567,George,57,ΕΜΠΟΡΙΚΟ ΤΡΙΓΩΝΟ-ΠΛΑΚΑ,37.97295,23.73204
1568,Tonia,8,ΚΟΛΩΝΑΚΙ,37.97888,23.74573
1569,Christina,14,ΕΜΠΟΡΙΚΟ ΤΡΙΓΩΝΟ-ΠΛΑΚΑ,37.97393,23.73206
1570,Dinos,5,ΚΟΥΚΑΚΙ-ΜΑΚΡΥΓΙΑΝΝΗ,37.96330775388767,23.722434759140015
1571,Viktor,7,ΚΟΥΚΑΚΙ-ΜΑΚΡΥΓΙΑΝΝΗ,37.96321117095267,23.7220613765616
1572,Ipelhome,6,ΕΜΠΟΡΙΚΟ ΤΡΙΓΩΝΟ-ΠΛΑΚΑ,37.971527099609375,23.73163414001465
1573,Giannis,10,ΝΕΟΣ ΚΟΣΜΟΣ,37.96481,23.73271
1574,Nestor,12,ΑΓΙΟΣ ΚΩΝΣΤΑΝΤΙΝΟΣ-ΠΛΑΤΕΙΑ ΒΑΘΗΣ,37.983692,23.724922
1575,WSD Home Inn,27,ΚΟΥΚΑΚΙ-ΜΑΚΡΥΓΙΑΝΝΗ,37.96767055837346,23.72730185133778
1576,Shaked,3,ΕΜΠΟΡΙΚΟ ΤΡΙΓΩΝΟ-ΠΛΑΚΑ,37.97418,23.73155
1577,Vasileios,3,ΝΕΟΣ ΚΟΣΜΟΣ,37.96317,23.73249
1578,Artemis,5,ΘΗΣΕΙΟ,37.973880767822266,23.714506149291992
1579,George,57,ΕΜΠΟΡΙΚΟ ΤΡΙΓΩΝΟ-ΠΛΑΚΑ,37.97543,23.73158
1580,Κωνσταντινος,22,ΠΑΓΚΡΑΤΙ,37.9686,23.74528
1581,Leonidas,22,ΚΟΥΚΑΚΙ-ΜΑΚΡΥΓΙΑΝΝΗ,37.9661,23.72479
1582,Dinos,5,ΚΟΥΚΑΚΙ-ΜΑΚΡΥΓΙΑΝΝΗ,37.96465695851157,23.72455833743439
1583,George,6,ΕΜΠΟΡΙΚΟ ΤΡΙΓΩΝΟ-ΠΛΑΚΑ,37.9698,23.73071
1584,Vassilis,3,ΕΜΠΟΡΙΚΟ ΤΡΙΓΩΝΟ-ΠΛΑΚΑ,37.97659,23.73093
1585,George,57,ΕΜΠΟΡΙΚΟ ΤΡΙΓΩΝΟ-ΠΛΑΚΑ,37.97131,23.73061
1586,Ulysses,7,ΕΜΠΟΡΙΚΟ ΤΡΙΓΩΝΟ-ΠΛΑΚΑ,37.97535994218196,23.730784343321613
1587,Konstantinos,3,ΘΗΣΕΙΟ,37.975498,23.719051
1588,Knb,4,ΚΟΥΚΑΚΙ-ΜΑΚΡΥΓΙΑΝΝΗ,37.9677911,23.7273616
1589,Knb,4,ΚΟΥΚΑΚΙ-ΜΑΚΡΥΓΙΑΝΝΗ,37.9678379,23.7293381
1590,Heritage,22,ΕΜΠΟΡΙΚΟ ΤΡΙΓΩΝΟ-ΠΛΑΚΑ,37.97663,23.7308
1591,Ipelhome,6,ΕΜΠΟΡΙΚΟ ΤΡΙΓΩΝΟ-ΠΛΑΚΑ,37.971527099609375,23.73163414001465
1592,George,57,ΕΜΠΟΡΙΚΟ ΤΡΙΓΩΝΟ-ΠΛΑΚΑ,37.9774,23.72986
1593,Christina,14,ΕΜΠΟΡΙΚΟ ΤΡΙΓΩΝΟ-ΠΛΑΚΑ,37.97323,23.73195
1594,Maria,4,ΑΚΡΟΠΟΛΗ,37.97139,23.73004
1595,Jj,16,ΕΜΠΟΡΙΚΟ ΤΡΙΓΩΝΟ-ΠΛΑΚΑ,37.97017,23.73132
1596,Evangelos,15,ΠΛΑΤΕΙΑ ΑΤΤΙΚΗΣ,37.99434411589242,23.72888360454018
1597,WSD Home Inn,27,ΚΟΥΚΑΚΙ-ΜΑΚΡΥΓΙΑΝΝΗ,37.9632325,23.7203762
1598,Greg,5,ΙΛΙΣΙΑ,37.9743,23.74885
1599,Nikos,14,ΜΟΥΣΕΙΟ-ΕΞΑΡΧΕΙΑ-ΝΕΑΠΟΛΗ,37.98651,23.73927
1600,Panagiotis,20,ΕΜΠΟΡΙΚΟ ΤΡΙΓΩΝΟ-ΠΛΑΚΑ,37.9718536,23.7315564
1601,David,12,ΚΟΥΚΑΚΙ-ΜΑΚΡΥΓΙΑΝΝΗ,37.9671,23.73008
1602,V² Development,27,ΑΓΙΟΣ ΚΩΝΣΤΑΝΤΙΝΟΣ-ΠΛΑΤΕΙΑ ΒΑΘΗΣ,37.9918231,23.7252036
1603,Marietta,8,ΚΕΡΑΜΕΙΚΟΣ,37.97932,23.72226
1604,Iasonas,3,ΠΕΤΡΑΛΩΝΑ,37.973148422732486,23.71328000159657
1605,Evans,10,ΠΛΑΤΕΙΑ ΑΤΤΙΚΗΣ,37.9939827,23.7303359
1606,Eleni & Athina,21,ΖΑΠΠΕΙΟ,37.9708974,23.7324063
1607,Alexandros,4,ΖΑΠΠΕΙΟ,37.96707914481279,23.73215357938392
1608,Stratos,3,ΚΟΥΚΑΚΙ-ΜΑΚΡΥΓΙΑΝΝΗ,37.9633603,23.7192721
1609,Athens Panorama Project,8,ΠΕΔΙΟ ΑΡΕΩΣ,37.9962,23.74278
1610,Shaked,3,ΕΜΠΟΡΙΚΟ ΤΡΙΓΩΝΟ-ΠΛΑΚΑ,37.97311,23.73131
1611,Dimitra,6,ΑΓΙΟΣ ΝΙΚΟΛΑΟΣ,38.0089863,23.7286812
1612,George,57,ΘΗΣΕΙΟ,37.97833401833206,23.72204422791089
1613,Nasos,15,ΚΟΛΩΝΑΚΙ,37.9795204,23.7485621
1614,Leonidas,5,ΚΟΥΚΑΚΙ-ΜΑΚΡΥΓΙΑΝΝΗ,37.9649397,23.7268163
1615,George,57,ΕΜΠΟΡΙΚΟ ΤΡΙΓΩΝΟ-ΠΛΑΚΑ,37.978779,23.723593
1616,NOHO Boutique,19,ΚΟΥΚΑΚΙ-ΜΑΚΡΥΓΙΑΝΝΗ,37.96558,23.72307
1617,Dimitris,4,ΝΕΟΣ ΚΟΣΜΟΣ,37.9646573,23.7289561
1618,George,9,ΕΜΠΟΡΙΚΟ ΤΡΙΓΩΝΟ-ΠΛΑΚΑ,37.97856,23.72964
1619,Evelyn,20,ΕΜΠΟΡΙΚΟ ΤΡΙΓΩΝΟ-ΠΛΑΚΑ,37.98035,23.72658
1620,Niko And Andrea,13,ΕΜΠΟΡΙΚΟ ΤΡΙΓΩΝΟ-ΠΛΑΚΑ,37.976405,23.7305377
1621,Μaria And Themis,6,ΝΕΟΣ ΚΟΣΜΟΣ,37.95669,23.72003
1622,Liroy,35,ΚΟΥΚΑΚΙ-ΜΑΚΡΥΓΙΑΝΝΗ,37.96444696299002,23.72524112427527
1623,Golden Home Holidays,35,ΠΛΑΤΕΙΑ ΑΤΤΙΚΗΣ,37.99223,23.72889
1624,LUXandEASY,15,ΠΑΤΗΣΙΑ,38.0132268,23.7307493
1625,Sunny Home,15,ΚΟΥΚΑΚΙ-ΜΑΚΡΥΓΙΑΝΝΗ,37.96701,23.72692
1626,Christina,14,ΕΜΠΟΡΙΚΟ ΤΡΙΓΩΝΟ-ΠΛΑΚΑ,37.97422,23.73414
1627,CloudKeys,35,ΑΚΡΟΠΟΛΗ,37.9627,23.71901
1628,Pakis,3,ΕΜΠΟΡΙΚΟ ΤΡΙΓΩΝΟ-ΠΛΑΚΑ,37.9763,23.73299
1629,Phaedrus Living,34,ΕΜΠΟΡΙΚΟ ΤΡΙΓΩΝΟ-ΠΛΑΚΑ,37.97682254074679,23.73267910029504
1630,Chryssa,9,ΚΟΥΚΑΚΙ-ΜΑΚΡΥΓΙΑΝΝΗ,37.96901,23.72986
1631,ΜΙΧΟΣ Μονοπροσωπη Ικε,17,ΑΚΡΟΠΟΛΗ,37.96825,23.72867
1632,Ioannis,4,ΚΟΥΚΑΚΙ-ΜΑΚΡΥΓΙΑΝΝΗ,37.965535,23.7238879
1633,Connect Apartments & Suites,8,ΑΓΙΟΣ ΚΩΝΣΤΑΝΤΙΝΟΣ-ΠΛΑΤΕΙΑ ΒΑΘΗΣ,37.98627,23.72005
1634,Solonos,20,ΠΛΑΤΕΙΑ ΑΤΤΙΚΗΣ,37.9941,23.73005
1635,Nestor,12,ΠΛΑΤΕΙΑ ΑΤΤΙΚΗΣ,37.9951,23.72879
1636,Liroy,35,ΚΕΡΑΜΕΙΚΟΣ,37.98021071470709,23.720106945882623
1637,Mgv,101,ΑΚΡΟΠΟΛΗ,37.96377,23.71753
1638,Connect Apartments & Suites,8,ΑΓΙΟΣ ΚΩΝΣΤΑΝΤΙΝΟΣ-ΠΛΑΤΕΙΑ ΒΑΘΗΣ,37.98611,23.72185
1639,TopHouzzing Properties,41,ΝΕΟΣ ΚΟΣΜΟΣ,37.962452,23.726234
1640,Be My Guest,10,ΑΚΡΟΠΟΛΗ,37.96958,23.72304
1641,WSD Home Inn,27,ΣΕΠΟΛΙΑ,38.0027,23.71568
1642,Mgv,101,ΜΟΥΣΕΙΟ-ΕΞΑΡΧΕΙΑ-ΝΕΑΠΟΛΗ,37.98228,23.7371
1643,Nikolaos,13,ΕΜΠΟΡΙΚΟ ΤΡΙΓΩΝΟ-ΠΛΑΚΑ,37.9826397,23.7325957
1644,Ana,4,ΝΕΟΣ ΚΟΣΜΟΣ,37.959791378153895,23.730099279296063
1645,Home Story,14,ΑΓΙΟΣ ΚΩΝΣΤΑΝΤΙΝΟΣ-ΠΛΑΤΕΙΑ ΒΑΘΗΣ,37.98467,23.72372
1646,Nadja,8,ΜΟΥΣΕΙΟ-ΕΞΑΡΧΕΙΑ-ΝΕΑΠΟΛΗ,37.9871,23.73322
1647,Effrossyni,4,ΑΜΠΕΛΟΚΗΠΟΙ,37.99115,23.75459
1648,Athina And/Or Eleni,23,ΚΟΛΩΝΑΚΙ,37.978572955041706,23.74977285231245
1649,Androniki,3,ΑΜΠΕΛΟΚΗΠΟΙ,37.99628,23.76271
1650,Charikleia,3,ΕΜΠΟΡΙΚΟ ΤΡΙΓΩΝΟ-ΠΛΑΚΑ,37.97436,23.72857
1651,Stavros,5,ΕΜΠΟΡΙΚΟ ΤΡΙΓΩΝΟ-ΠΛΑΚΑ,37.97535,23.72459
1652,Efι,3,ΕΜΠΟΡΙΚΟ ΤΡΙΓΩΝΟ-ΠΛΑΚΑ,37.97815,23.73629
1653,Kostas,6,ΚΥΨΕΛΗ,37.99776,23.73839
1654,Only ElPilar,10,ΜΟΥΣΕΙΟ-ΕΞΑΡΧΕΙΑ-ΝΕΑΠΟΛΗ,37.9849061,23.7335535
1655,Sofi,7,ΕΜΠΟΡΙΚΟ ΤΡΙΓΩΝΟ-ΠΛΑΚΑ,37.98068,23.73103
1656,Vasiliki,5,ΜΟΥΣΕΙΟ-ΕΞΑΡΧΕΙΑ-ΝΕΑΠΟΛΗ,37.9846444,23.7377391
1657,Anna & Efi,6,ΕΜΠΟΡΙΚΟ ΤΡΙΓΩΝΟ-ΠΛΑΚΑ,37.97651,23.72982
1658,Theodoros,12,ΚΟΥΚΑΚΙ-ΜΑΚΡΥΓΙΑΝΝΗ,37.96375,23.722
1659,Theofrastos,6,ΝΕΟΣ ΚΟΣΜΟΣ,37.964657,23.73143
1660,D & Y Boutique Athens,50,ΚΕΡΑΜΕΙΚΟΣ,37.9802,23.72357
1661,Heritage,22,ΕΜΠΟΡΙΚΟ ΤΡΙΓΩΝΟ-ΠΛΑΚΑ,37.97861,23.73065
1662,Konstadina,3,ΕΜΠΟΡΙΚΟ ΤΡΙΓΩΝΟ-ΠΛΑΚΑ,37.97433319668172,23.730480377442227
1663,Klepsydra,14,ΕΜΠΟΡΙΚΟ ΤΡΙΓΩΝΟ-ΠΛΑΚΑ,37.97874,23.73054
1664,Manolis,7,ΑΓΙΟΣ ΚΩΝΣΤΑΝΤΙΝΟΣ-ΠΛΑΤΕΙΑ ΒΑΘΗΣ,37.98263837416703,23.72234959150731
1665,Raise Team,42,ΚΟΥΚΑΚΙ-ΜΑΚΡΥΓΙΑΝΝΗ,37.96659,23.72907
1666,George,9,ΕΜΠΟΡΙΚΟ ΤΡΙΓΩΝΟ-ΠΛΑΚΑ,37.97677,23.72953
1667,Leonidas,22,ΚΟΥΚΑΚΙ-ΜΑΚΡΥΓΙΑΝΝΗ,37.9685,23.73005
1668,Roubina,20,ΘΗΣΕΙΟ,37.97437,23.71847
1669,Sokol,42,ΚΕΡΑΜΕΙΚΟΣ,37.97989,23.72261
1670,Charikleia,3,ΕΜΠΟΡΙΚΟ ΤΡΙΓΩΝΟ-ΠΛΑΚΑ,37.97439,23.72856
1671,Konmar Development,3,ΝΙΡΒΑΝΑ,38.00555,23.72531
1672,Nina,18,ΑΝΩ ΠΑΤΗΣΙΑ,38.020664,23.735484
1673,Ζωή,11,ΚΟΥΚΑΚΙ-ΜΑΚΡΥΓΙΑΝΝΗ,37.96869,23.73062
1674,Heritage,22,ΕΜΠΟΡΙΚΟ ΤΡΙΓΩΝΟ-ΠΛΑΚΑ,37.97645,23.73102
1675,Dropebnb,49,ΜΟΥΣΕΙΟ-ΕΞΑΡΧΕΙΑ-ΝΕΑΠΟΛΗ,37.9849676,23.7375067
1676,Konstadina,3,ΘΗΣΕΙΟ,37.97443,23.71879
1677,Vaggelis,4,ΖΑΠΠΕΙΟ,37.96704784529856,23.731701943954484
1678,YalaRent,9,ΕΜΠΟΡΙΚΟ ΤΡΙΓΩΝΟ-ΠΛΑΚΑ,37.97665866481067,23.73067092955994
1679,Harry,64,ΕΜΠΟΡΙΚΟ ΤΡΙΓΩΝΟ-ΠΛΑΚΑ,37.972134,23.731934
1680,Tonia,8,ΛΥΚΑΒΗΤΤΟΣ,37.97948,23.74412
1681,Παναγιώτης,6,ΕΜΠΟΡΙΚΟ ΤΡΙΓΩΝΟ-ΠΛΑΚΑ,37.9762171,23.7303331
1682,Klepsydra,14,ΕΜΠΟΡΙΚΟ ΤΡΙΓΩΝΟ-ΠΛΑΚΑ,37.97956,23.72974
1683,Dipsons,7,ΓΚΑΖΙ,37.97645,23.70934
1684,Heritage,22,ΕΜΠΟΡΙΚΟ ΤΡΙΓΩΝΟ-ΠΛΑΚΑ,37.97653,23.72975
1685,George,57,ΕΜΠΟΡΙΚΟ ΤΡΙΓΩΝΟ-ΠΛΑΚΑ,37.97296,23.73084
1686,Cozy Homes,7,ΘΗΣΕΙΟ,37.9758601,23.7159217
1687,Evans,10,ΑΓΙΟΣ ΚΩΝΣΤΑΝΤΙΝΟΣ-ΠΛΑΤΕΙΑ ΒΑΘΗΣ,37.98371,23.72342
1688,Wayhome,13,ΠΕΤΡΑΛΩΝΑ,37.96632995145429,23.712129202461764
1689,Attikibnb,3,ΠΛΑΤΕΙΑ ΑΜΕΡΙΚΗΣ,38.0010464,23.7319383
1690,Amelie,32,ΕΜΠΟΡΙΚΟ ΤΡΙΓΩΝΟ-ΠΛΑΚΑ,37.97834,23.7275
1691,Nasos,15,ΓΟΥΒΑ,37.9607585,23.7434938
1692,Maria,22,ΕΜΠΟΡΙΚΟ ΤΡΙΓΩΝΟ-ΠΛΑΚΑ,37.97201769999999,23.7321357
1693,Homer & Isabella,58,ΚΟΥΚΑΚΙ-ΜΑΚΡΥΓΙΑΝΝΗ,37.96328,23.72159
1694,Christina,14,ΕΜΠΟΡΙΚΟ ΤΡΙΓΩΝΟ-ΠΛΑΚΑ,37.97358,23.73352
1695,Antonis,14,ΕΜΠΟΡΙΚΟ ΤΡΙΓΩΝΟ-ΠΛΑΚΑ,37.9762589,23.7325586
1696,Christina,14,ΕΜΠΟΡΙΚΟ ΤΡΙΓΩΝΟ-ΠΛΑΚΑ,37.97402,23.73284
1697,Konstantinos,10,ΕΜΠΟΡΙΚΟ ΤΡΙΓΩΝΟ-ΠΛΑΚΑ,37.97558,23.73161
1698,Lucas,15,ΕΜΠΟΡΙΚΟ ΤΡΙΓΩΝΟ-ΠΛΑΚΑ,37.9763688,23.7310102
1699,NOHO Boutique,19,ΚΟΥΚΑΚΙ-ΜΑΚΡΥΓΙΑΝΝΗ,37.96447,23.72249
1700,Konstantinos,10,ΕΜΠΟΡΙΚΟ ΤΡΙΓΩΝΟ-ΠΛΑΚΑ,37.97558,23.73161
1701,Claire,3,ΕΜΠΟΡΙΚΟ ΤΡΙΓΩΝΟ-ΠΛΑΚΑ,37.97855,23.72352
1702,Anna & Efi,6,ΕΜΠΟΡΙΚΟ ΤΡΙΓΩΝΟ-ΠΛΑΚΑ,37.97656,23.7301
1703,D & Y Boutique Athens,50,ΚΕΡΑΜΕΙΚΟΣ,37.97999,23.7236
1704,NOHO Boutique,19,ΚΟΥΚΑΚΙ-ΜΑΚΡΥΓΙΑΝΝΗ,37.96665,23.72426
1705,Viktor,7,ΚΟΥΚΑΚΙ-ΜΑΚΡΥΓΙΑΝΝΗ,37.9639,23.72367
1706,Zoia,6,ΛΥΚΑΒΗΤΤΟΣ,37.9797077,23.7447585
1707,Αριστειδης,33,ΠΛΑΤΕΙΑ ΑΤΤΙΚΗΣ,38.00072097336375,23.72622172043371
1708,Evangelos,15,ΠΛΑΤΕΙΑ ΑΤΤΙΚΗΣ,37.99469562740779,23.729387647791224
1709,Evangelos,15,ΠΛΑΤΕΙΑ ΑΤΤΙΚΗΣ,37.99660827277184,23.727619766426866
1710,Jerry,9,ΠΕΔΙΟ ΑΡΕΩΣ,37.99592,23.73772
1711,Ioannis,8,ΠΛΑΤΕΙΑ ΑΜΕΡΙΚΗΣ,38.00219891514003,23.72706735646424
1712,Αριστειδης,33,ΠΛΑΤΕΙΑ ΑΤΤΙΚΗΣ,37.99638124045789,23.725227974095567
1713,Waylink Apartments,7,ΑΓΙΟΣ ΝΙΚΟΛΑΟΣ,38.0110363,23.7303485
1714,Avigail,3,ΜΟΥΣΕΙΟ-ΕΞΑΡΧΕΙΑ-ΝΕΑΠΟΛΗ,37.98939,23.73399
1715,Evangelos,15,ΠΛΑΤΕΙΑ ΑΤΤΙΚΗΣ,37.99475046473341,23.729008515876465
1716,Klepsydra,14,ΕΜΠΟΡΙΚΟ ΤΡΙΓΩΝΟ-ΠΛΑΚΑ,37.98046,23.73076
1717,Αριστειδης,33,ΠΛΑΤΕΙΑ ΑΤΤΙΚΗΣ,38.00011,23.7242
1718,Maryland,56,ΝΙΡΒΑΝΑ,38.00398,23.72612
1719,Sokol,42,ΚΕΡΑΜΕΙΚΟΣ,37.98455453138547,23.715825900435448
1720,Holidu,4,ΑΓΙΟΣ ΝΙΚΟΛΑΟΣ,38.0092871,23.7284431
1721,George,3,ΚΟΛΩΝΑΚΙ,37.9775156,23.7458742
1722,Mgv,101,ΑΚΡΟΠΟΛΗ,37.9629408755518,23.716886085181446
1723,Antreas,20,ΑΜΠΕΛΟΚΗΠΟΙ,37.9888,23.76698
1724,Thanos,9,ΚΟΥΚΑΚΙ-ΜΑΚΡΥΓΙΑΝΝΗ,37.9621243,23.7205044
1725,Jerry,9,ΠΕΔΙΟ ΑΡΕΩΣ,37.99614,23.73784
1726,Stefanos,8,ΓΚΥΖΗ,37.99113,23.74635
1727,Evangelia,5,ΠΛΑΤΕΙΑ ΑΤΤΙΚΗΣ,37.99474,23.72352
1728,Antreas,20,ΑΜΠΕΛΟΚΗΠΟΙ,37.9903,23.76402
1729,Athens Houses,19,ΓΚΥΖΗ,37.99028,23.74136
1730,Homer & Isabella,58,ΚΟΥΚΑΚΙ-ΜΑΚΡΥΓΙΑΝΝΗ,37.9619696,23.7202616
1731,La Residence Athens,4,ΙΛΙΣΙΑ,37.9761065,23.7537314
1732,Wyz Attiki,6,ΠΛΑΤΕΙΑ ΑΤΤΙΚΗΣ,37.995251,23.722631
1733,Maria,4,ΝΕΟΣ ΚΟΣΜΟΣ,37.96395703546255,23.727720921525567
1734,Ouiliam,22,ΑΜΠΕΛΟΚΗΠΟΙ,37.99365,23.76158
1735,G,15,ΠΛΑΤΕΙΑ ΑΤΤΙΚΗΣ,37.997574329040056,23.724725864549114
1736,Oculus,4,ΠΛΑΤΕΙΑ ΑΜΕΡΙΚΗΣ,38.0020956,23.7326372
1737,Holidu,4,ΑΓΙΟΣ ΝΙΚΟΛΑΟΣ,38.0092871,23.7284431
1738,Home,23,ΠΛΑΤΕΙΑ ΑΜΕΡΙΚΗΣ,38.0023363,23.7282231
1739,Tèo,49,ΝΕΟΣ ΚΟΣΜΟΣ,37.9620172067149,23.725391841137554
1740,Maria & Manolis,3,ΛΥΚΑΒΗΤΤΟΣ,37.98537,23.74388
1741,Connect Apartments & Suites,8,ΑΓΙΟΣ ΚΩΝΣΤΑΝΤΙΝΟΣ-ΠΛΑΤΕΙΑ ΒΑΘΗΣ,37.98653,23.72006
1742,Antreas,20,ΑΜΠΕΛΟΚΗΠΟΙ,37.98929,23.76883
1743,Manolis,7,ΚΟΛΩΝΑΚΙ,37.97859,23.73872
1744,George,12,ΛΥΚΑΒΗΤΤΟΣ,37.98202049073442,23.739546486863247
1745,Max,4,ΚΟΛΟΚΥΝΘΟΥ,38.00081155096151,23.706333918081523
1746,Jason,3,ΠΛΑΤΕΙΑ ΑΤΤΙΚΗΣ,37.99493,23.72803
1747,Hellenic,6,ΣΕΠΟΛΙΑ,38.00424,23.72006
1748,Fiona,8,ΒΟΤΑΝΙΚΟΣ,37.98375,23.70976
1749,La Residence Athens,4,ΙΛΙΣΙΑ,37.9761065,23.7537314
1750,Kostas,6,ΝΕΑ ΚΥΨΕΛΗ,37.99832,23.74143
1751,Multipath,7,ΚΟΛΩΝΑΚΙ,37.97875595092773,23.73986053466797
1752,Evan&Anetta,68,ΕΜΠΟΡΙΚΟ ΤΡΙΓΩΝΟ-ΠΛΑΚΑ,37.98351,23.73113
1753,Loukas,40,ΕΜΠΟΡΙΚΟ ΤΡΙΓΩΝΟ-ΠΛΑΚΑ,37.976405,23.7305377
1754,Antreas,20,ΑΜΠΕΛΟΚΗΠΟΙ,37.99214,23.76531
1755,Nelly,11,ΓΚΥΖΗ,37.9944085,23.7501988
1756,Stefan,13,ΝΙΡΒΑΝΑ,38.0063316,23.7242848
1757,Interni,3,ΚΕΡΑΜΕΙΚΟΣ,37.9789676366544,23.71158126441801
1758,Phaedrus Living,34,ΛΥΚΑΒΗΤΤΟΣ,37.98691,23.74879
1759,Ronen,33,ΕΜΠΟΡΙΚΟ ΤΡΙΓΩΝΟ-ΠΛΑΚΑ,37.97719,23.72869
1760,Goldally,30,ΠΛΑΤΕΙΑ ΑΤΤΙΚΗΣ,37.9954597,23.7243083
1761,Harry,64,ΙΛΙΣΙΑ,37.9798,23.75466
1762,Marianna,19,ΓΟΥΔΙ,37.98477,23.76146
1763,Yannis & Tax,14,ΖΑΠΠΕΙΟ,37.9668444,23.7314645
1764,Wei,3,ΣΤΑΘΜΟΣ ΛΑΡΙΣΗΣ,37.99367378966705,23.721806137562748
1765,Marianna,19,ΝΙΡΒΑΝΑ,38.00873,23.72588
1766,Ilona,5,ΚΥΨΕΛΗ,37.9967109,23.7337189
1767,Pavlos,3,ΓΟΥΔΙ,37.980327200719664,23.75724791299471
1768,Ilona,5,ΚΥΨΕΛΗ,37.99693365168099,23.733477517962456
1769,Gianttrip,30,ΚΟΛΩΝΑΚΙ,37.97818,23.74869
1770,Gianttrip,30,ΚΟΛΩΝΑΚΙ,37.97939,23.7453
1771,Marianna,19,ΓΟΥΔΙ,37.9847757,23.7618892
1772,TopHouzzing Properties,41,ΙΛΙΣΙΑ,37.9722561,23.7560458
1773,Loukas,40,ΑΓΙΟΣ ΚΩΝΣΤΑΝΤΙΝΟΣ-ΠΛΑΤΕΙΑ ΒΑΘΗΣ,37.9908398,23.7294877
1774,Liv,9,ΑΜΠΕΛΟΚΗΠΟΙ,37.9912169,23.7664927
1775,Liv,9,ΑΜΠΕΛΟΚΗΠΟΙ,37.9912169,23.7664927
1776,Tia & Mike,11,ΚΟΥΚΑΚΙ-ΜΑΚΡΥΓΙΑΝΝΗ,37.96132,23.72089
1777,Gpm,36,ΠΕΤΡΑΛΩΝΑ,37.96933,23.71289
1778,Blue,10,ΠΛΑΤΕΙΑ ΑΜΕΡΙΚΗΣ,38.00242,23.73074
1779,Pagona,11,ΚΟΛΩΝΑΚΙ,37.9801767,23.7395591
1780,Dimitris,4,ΝΕΟΣ ΚΟΣΜΟΣ,37.959186126901095,23.73553991163941
1781,Alexios,6,ΣΤΑΘΜΟΣ ΛΑΡΙΣΗΣ,37.99598,23.72034
1782,C W,11,ΝΕΟΣ ΚΟΣΜΟΣ,37.95788557002668,23.736229106461938
1783,Waylink Apartments,7,ΚΟΛΩΝΟΣ,37.9917313,23.7181552
1784,Athens Home,10,ΚΕΡΑΜΕΙΚΟΣ,37.97946,23.7159
1785,Tia & Mike,11,ΚΟΥΚΑΚΙ-ΜΑΚΡΥΓΙΑΝΝΗ,37.96244,23.7217
1786,Ειρηνη,3,ΝΕΟΣ ΚΟΣΜΟΣ,37.95858,23.73569
1787,Stelios,22,ΚΟΥΚΑΚΙ-ΜΑΚΡΥΓΙΑΝΝΗ,37.9617271,23.7204691
1788,Marianna,19,ΝΙΡΒΑΝΑ,38.0088,23.72583
1789,Dropebnb,49,ΠΛΑΤΕΙΑ ΑΤΤΙΚΗΣ,37.9921235,23.7297899
1790,Kathy,5,ΠΛΑΤΕΙΑ ΑΤΤΙΚΗΣ,37.99304,23.72884
1791,Kostas,6,ΜΟΥΣΕΙΟ-ΕΞΑΡΧΕΙΑ-ΝΕΑΠΟΛΗ,37.9853732,23.7408965
1792,Phaedrus Living,34,ΓΟΥΔΙ,37.98364787805273,23.76015388898256
1793,Alexis,3,ΙΛΙΣΙΑ,37.97613,23.75584
1794,LUXandEASY,15,ΝΙΡΒΑΝΑ,38.01110510000001,23.7275353
1795,Σωτηριος,5,ΝΕΟΣ ΚΟΣΜΟΣ,37.95767,23.73397
1796,Antonia,9,ΠΛΑΤΕΙΑ ΑΜΕΡΙΚΗΣ,38.00505,23.73297
1797,Ιωάννης,3,ΠΕΤΡΑΛΩΝΑ,37.96579,23.70514
1798,Petros,11,ΜΟΥΣΕΙΟ-ΕΞΑΡΧΕΙΑ-ΝΕΑΠΟΛΗ,37.9880314,23.7428736
1799,Athens Houses,19,ΡΙΖΟΥΠΟΛΗ,38.0306,23.74362
1800,Krisida,5,ΑΓΙΟΣ ΚΩΝΣΤΑΝΤΙΝΟΣ-ΠΛΑΤΕΙΑ ΒΑΘΗΣ,37.98191019820846,23.72015654613856
1801,Youla,18,ΠΑΓΚΡΑΤΙ,37.97328,23.74974
1802,Marianna,19,ΝΙΡΒΑΝΑ,38.00997,23.72745
1803,W.S.D Home Inn,15,ΚΟΥΚΑΚΙ-ΜΑΚΡΥΓΙΑΝΝΗ,37.96057,23.7213
1804,Andrés,3,ΑΓΙΟΣ ΚΩΝΣΤΑΝΤΙΝΟΣ-ΠΛΑΤΕΙΑ ΒΑΘΗΣ,37.987125,23.719532
1805,Demi And Spiros,3,ΑΓΙΟΣ ΕΛΕΥΘΕΡΙΟΣ,38.01974,23.73023
1806,Petros,11,ΜΟΥΣΕΙΟ-ΕΞΑΡΧΕΙΑ-ΝΕΑΠΟΛΗ,37.98895,23.74172
1807,Σπυρίδων,3,ΑΓΙΟΣ ΚΩΝΣΤΑΝΤΙΝΟΣ-ΠΛΑΤΕΙΑ ΒΑΘΗΣ,37.98619560745017,23.72099703109818
1808,Ilona,5,ΚΥΨΕΛΗ,37.99678660000001,23.7335333
1809,W.S.D Home Inn,15,ΚΟΥΚΑΚΙ-ΜΑΚΡΥΓΙΑΝΝΗ,37.96163164951011,23.719117790036456
1810,Maria,8,ΝΕΑ ΚΥΨΕΛΗ,37.9995118,23.7441015
